stop_id,stop_name,latitude,longitude
1,Millwood Rd at McRae Dr South Side,43.704652,-79.367698
2,Bathurst St at Horsham Ave,43.768449,-79.441504
3,Royal York Rd at King Georges Rd,43.650225,-79.512691
4,Finch Ave West at Driftwood Ave,43.757924,-79.513523
5,Lawrence Ave East at Wanless Cres (West),43.727149,-79.392116
7,Kennedy Rd at Huntingwood Dr,43.79502,-79.293198
8,Shorncliffe Ave at Newbridge Rd South Side,43.625815,-79.542151
9,Warden Ave at Tower Dr,43.754307,-79.298221
10,Thirtieth St at Alhena Ave,43.602452,-79.532974
11,Birchmount Rd at Harvest Moon Dr,43.823801,-79.317854
12,Brown's Line at Woodbury Rd,43.599389,-79.544276
13,Pharmacy Ave at Huntingwood Dr,43.781783,-79.32034
14,Pharmacy Ave at Rosscowan Gate South Side,43.784997,-79.321745
16,Underhill Dr at Broadlands Blvd,43.744031,-79.326011
17,St Clair Ave East at Santamonica Blvd,43.712912,-79.276699
18,Driftwood Ave at Finch Ave West,43.757895,-79.513233
19,Rexdale Blvd at Martin Grove Rd,43.713759,-79.581288
20,Willowdale Ave at Northwood Dr,43.791424,-79.411164
21,Dovercourt Rd at Geary Ave North Side,43.671083,-79.433224
22,Drewry Ave at Marthon Cres (East),43.781792,-79.441105
23,Post Rd at Bayview Ave East Side,43.736369,-79.381338
24,Queens Quay West at Rees St West Side,43.63876,-79.387157
25,Albion Rd at Finch Ave West,43.741208,-79.588821
26,Middlefield Rd at Passmore Ave,43.827006,-79.264802
28,Eglinton Ave East at Laird Dr East Side,43.713677,-79.363762
29,Lesmill Rd at Valleybrook Dr West Side,43.757793,-79.355475
30,Huntingwood Dr at Garrybrook Dr,43.789178,-79.30715
31,Davenport Rd at Osler St,43.670383,-79.459172
32,Yonge Blvd at Dunster Ave North Side,43.739877,-79.413594
33,185 Graydon Hall Dr,43.764226,-79.342218
34,Eglinton Ave East at Beachell St,43.742332,-79.222161
35,Keele St at Greenbrook Dr South Side,43.696812,-79.475456
36,College St at Elizabeth St,43.660394,-79.387562
37,Le Page Crt at Keele St East Side,43.758093,-79.488998
40,Jones Ave at Baird Ave,43.676657,-79.338684
42,Dufferin St at Gordon St,43.646696,-79.430224
44,Evans Ave at Gair Dr,43.610092,-79.551991
45,Longbourne Dr at Redgrave Dr,43.679218,-79.57013
46,Huntingwood Rd at Ridgecrest Dr,43.78437,-79.31528
48,Elmhurst Dr at Muncey Ave,43.724247,-79.55368
50,Islington Ave at Norseman St,43.634118,-79.51889
51,McNicoll Ave at Midland Ave,43.814437,-79.292415
52,Wilson Heights Blvd at Clifton Ave,43.75896,-79.463205
53,Progress Ave at Estate Dr (West),43.781041,-79.23775
54,Steeles Ave East at Midland Ave,43.826099,-79.297089
56,Bayview Ave at Hillcrest Ave,43.772666,-79.389534
57,Willowridge Rd at Richgrove Dr,43.675751,-79.568602
58,Victoria Park Ave at Furnival Rd,43.712557,-79.297658
60,299 Norfinch Dr,43.768397,-79.531258
61,Kipling Ave at Hayhurst Rd,43.692199,-79.557813
62,Moore Ave at Orchard Green,43.696364,-79.374325
63,Islington Ave at Finch Ave West South Side,43.74577,-79.568755
64,105 Ironside Cres,43.828637,-79.246914
65,Martin Grove Rd at Finch Ave West,43.736669,-79.5914
66,Sheppard Ave West at Yatescastle Dr,43.740433,-79.506722
68,King St West at Jameson Ave,43.637264,-79.435842
69,Bayview Ave at Wilket Rd,43.74599,-79.383662
71,Trethewey Dr at Brookhaven Dr,43.696992,-79.493473
72,Hullmar Dr at Hisey Cres (South) North Side,43.770083,-79.529961
73,Davisville Ave at Forman Ave,43.701547,-79.380739
74,Warden Ave at Murray Glen Dr,43.756169,-79.299232
76,Calvington Dr at Keele St West Side,43.733493,-79.484279
77,Main St Markham North at Bullock Dr,43.88138,-79.26167
79,Moore Ave at Brendan Rd,43.695296,-79.378662
80,Pharmacy Ave at Princeway Dr,43.753264,-79.308784
81,Oakwood Ave at Highview Cres,43.676397,-79.43463
83,Weston Rd at Coral Gable Dr,43.73566,-79.538805
84,Bathurst St at Fort York Blvd,43.638947,-79.400771
85,McNicoll Ave at Warden Ave,43.80617,-79.321258
86,Queen St East at Ontario St,43.654914,-79.367262
87,South Dr at Glen Rd,43.677609,-79.375709
88,Albion Rd at Martin Grove Rd East Side,43.741652,-79.593301
89,Glencairn Ave at Danesbury Ave,43.708453,-79.446634
90,84 Davisville Ave - Salvation Army,43.699124,-79.393026
91,Sheppard Ave East at Greenbriar Rd,43.768237,-79.38048
92,Bellamy Rd North at Banmoor Blvd North Side,43.75196,-79.233248
93,McLevin Ave at Greenspire Rd,43.803144,-79.232276
94,York Mills Rd at Harrison Rd,43.7496,-79.378889
95,Warden Ave at Denison St North Side,43.82792,-79.326516
96,Lawrence Ave West at Scarlett Rd,43.698042,-79.523367
98,Sheppard Ave East at Conlins Rd East Side,43.80425,-79.189258
99,Royal York Rd at Trehorne Dr,43.690289,-79.529987
100,Avenue Rd at Lonsdale Rd South Side,43.690299,-79.403055
101,601 Milner Ave,43.793966,-79.223153
103,Wynford Dr at Don Mills Rd East Side,43.723099,-79.338338
104,Weston Rd at Fern Ave South Side,43.702116,-79.523302
105,St Clair Ave East at Victoria Park Ave West Side,43.708945,-79.296378
106,Runnymede Rd at Maher Ave South Side,43.662007,-79.480732
107,Rathburn Rd at Pheasant Lane,43.66157,-79.535378
108,McNicoll Ave at Markham Rd,43.823774,-79.24824
110,Bay St at Dundas St West,43.655825,-79.383879
111,Dundas St West at Sterling Rd,43.650631,-79.443251
112,Church St at Weston Rd,43.703403,-79.524942
114,Royal York Rd at Darlingbrook Cres South Side,43.670934,-79.521782
115,Heathrow Dr at Chesham Dr,43.726714,-79.505012
116,Horner Ave at Alderbrae Ave,43.602828,-79.540636
117,St Clair Ave East at Glen Eden Cres,43.706846,-79.305951
119,Kingston Rd at Eastwood Ave,43.690304,-79.267035
120,Markham Rd at Edward Jeffreys Ave,43.896321,-79.26493
121,Leslie St at Commissioners St North Side,43.65695,-79.326541
122,Brimley Rd at Larkhall Ave North Side,43.751108,-79.25425
123,Brimley Rd at Progress Ave,43.775111,-79.262909
125,St Regis Cres at St Regis Cres North West Side,43.755144,-79.486134
126,Canarctic Dr at Keele St,43.775507,-79.493063
127,McCowan Rd at McNicoll Ave,43.818132,-79.272206
128,Kennedy Rd at Village Green Sq,43.777387,-79.28586
129,Prince Edward Dr South at Meadowvale Dr,43.646879,-79.504626
130,Elmhurst Dr at Henley Cres West Side,43.728728,-79.571792
131,McNicoll Ave at Brahms Ave,43.799544,-79.359911
132,Foxwell St at Bruton Rd East Side,43.670048,-79.498441
133,Burnhamthorpe Rd at Old Burnhamthorpe Rd (East),43.642747,-79.575602
134,Claireport Cres (West) at Albion Rd,43.746846,-79.634653
135,Danforth Rd at Mack Ave,43.700261,-79.272824
136,1216 Lansdowne Ave,43.673282,-79.449421
137,Marlee Ave at Ridelle Ave,43.70393,-79.441849
138,St Clair Ave West at Runnymede Rd West Side,43.66887,-79.484326
139,Bay St at Harbour St South Side - Ferry Docks Terminal,43.641735,-79.377377
140,Royal York Rd at York View Dr,43.630572,-79.504255
141,Glencairn Ave at Glenmount Ave,43.711963,-79.430158
142,Opposite 3400 Keele St,43.747916,-79.48704
143,Denton Ave at Madelaine Ave,43.693522,-79.285673
144,Davenport Rd at New St,43.6747,-79.39311
145,Cosburn Ave at Donlands Ave West Side,43.690981,-79.342035
146,Leslie St at Bannatyne Dr North Side,43.758903,-79.361143
147,Woodsworth Rd at Hopperton Dr (East),43.764877,-79.371434
148,Tapscott Rd at Newgale Gate,43.818214,-79.239653
149,Kipling Ave at Goswell Rd,43.649052,-79.538342
150,McLevin Ave at Tapscott Rd,43.80495,-79.226855
151,Arleta Ave at Medal Lane,43.747718,-79.506309
152,Elmhurst Dr at Genthorn Ave,43.725054,-79.564692
153,Donlands Ave at Memorial Park Ave,43.689286,-79.340814
154,Birchmount Rd at Eglinton Ave East,43.730225,-79.278074
155,Davenport Rd at Symington Ave,43.670556,-79.453794
156,Yonge St at Blythwood Rd,43.716269,-79.400257
157,McCowan Rd at St Andrews Rd,43.760142,-79.247004
159,Davisville Ave at Acacia Rd,43.69965,-79.389801
160,Yonge St at Bloor St West - Bloor Station,43.670441,-79.386954
161,Overlea Blvd at William Morgan Dr West Side,43.708042,-79.341738
164,St Clair Ave East at Inglewood Dr,43.689714,-79.386688
165,Martin Grove Rd at Walkway to 308 Silverstone Dr,43.749189,-79.597892
166,Martin Grove Rd at Redgrave Dr (North),43.683481,-79.56738
167,Emmett Ave at Jane St,43.69001,-79.500826
169,Albion Rd at Elmhurst Dr,43.725287,-79.550901
170,Arrow Rd at Finch Ave West,43.753006,-79.535911
171,Leslie St at Castlebury Cres,43.796638,-79.369653
173,Bathurst St at Saranac Blvd,43.723161,-79.430751
175,Lawrence Ave East at Birchmount Rd,43.747291,-79.285133
176,Don Mills Rd at Chipping Rd,43.744827,-79.345629
177,225 Rexdale Blvd,43.712216,-79.574622
178,Kingston Rd at Cromwell Rd West Side,43.749401,-79.206461
179,Spadina Ave at Queen St West North Side,43.649178,-79.396495
180,Sheppard Ave East at Willowdale Ave,43.76413,-79.399503
181,Albion Rd at Westmore Dr East Side,43.743454,-79.603399
182,Bathurst St at Walkway to Crown Heights Cres,43.796726,-79.44669
183,Coxwell Ave at Mortimer Ave - Michael Garron Hospital,43.690393,-79.326395
184,Warden Ave at Huntingwood Dr,43.78558,-79.311163
185,Finch Ave West at Edithvale Dr,43.777055,-79.427217
186,Victoria Park Ave at Sparks Ave,43.808645,-79.33851
187,Bellamy Rd North at Benleigh Dr South Side,43.763167,-79.237531
188,Horner Ave at Kipling Ave,43.607357,-79.520485
189,Wilmington Ave at Codsell Ave,43.754932,-79.453524
190,Kennedy Rd at Summer Dr North Side,43.722233,-79.263541
191,The Queensway at St Lawrence Ave,43.622458,-79.519305
192,Brimley Rd at Shediac Rd,43.748931,-79.253566
193,Birchmount Rd at Risebrough Circt (South),43.824208,-79.318211
195,Bathurst St at Baycrest Ave,43.729709,-79.43227
196,Dovercourt Rd at Shanly St,43.664511,-79.430679
197,Lawrence Ave East at Morning Dew Rd,43.772188,-79.169034
198,Weston Rd at Denison Rd West,43.696304,-79.508408
199,Bathurst St at Woburn Ave,43.722434,-79.430385
200,Atkinson Ave at Rosedale Heights Dr (South),43.813693,-79.443633
201,Opposite 700 Arrow Rd,43.745407,-79.529314
202,Parliament St at Bloor St East,43.671579,-79.37081
203,Greenwood Ave at Athletic Ave,43.669339,-79.327249
204,Hullmar Dr at Monaco Crt,43.76526,-79.527908
206,Lake Shore Blvd West at Third St,43.601653,-79.500866
207,Sheppard Ave East at Victoria Park Ave,43.775457,-79.322733
208,Yonge St at Wellesley St West - Wellesley Station,43.665025,-79.3847
209,Victoria Park Ave at Sheppard Ave East,43.775507,-79.323318
210,Wilson Ave at Murray Rd,43.729711,-79.471403
211,Dupont St at Dufferin St,43.668358,-79.439135
212,Major Mackenzie Dr East at Ridgecrest Rd,43.900656,-79.304807
213,O'Connor Dr at Sandra Rd,43.704655,-79.31359
214,King St East at Sackville St,43.654602,-79.360165
215,Burnhamthorpe Rd at Shaver Ave North West Side,43.648209,-79.551986
217,Pharmacy Ave at Dawes Rd North Side,43.708398,-79.290183
218,The East Mall at Capri Rd North Side,43.652678,-79.563094
219,2666 Danforth Ave,43.6888,-79.299321
220,High Park Ave at Humberside Ave,43.660548,-79.468349
221,Danforth Ave at Hillingdon Ave,43.683774,-79.321292
222,Martin Grove Rd at Richgrove Dr North Side,43.677322,-79.564238
223,Kennedy Rd at Forbes Rd South Side,43.755088,-79.27719
224,44 Coe Hill Dr,43.639189,-79.469561
225,Kingston Rd at Old Kingston Rd,43.773854,-79.183177
226,Chisholm Ave at Crewe Ave,43.694283,-79.30583
227,Wellesworth Dr at Faversham Cres,43.658866,-79.579656
228,Coxwell Ave at Glebeholme Blvd,43.685691,-79.324472
229,Queen St West at Strachan Ave,43.645403,-79.413052
230,Chaplin Cres at Roselawn Ave,43.705299,-79.423672
231,10 Disco Rd,43.701867,-79.592678
233,Willowdale Ave at Wedgewood Dr,43.79028,-79.410949
235,Martin Grove Rd at Waterbury Dr,43.687701,-79.568932
236,Opposite 1792 Birchmount Rd,43.765676,-79.291272
237,Ceramic Rd at Le Page Crt,43.758851,-79.484719
238,Crosby Ave at Warren Cres,43.661701,-79.500094
239,Rexdale Blvd at Frost St East Side,43.712262,-79.563763
242,Birchmount Rd at Opposite Walkway to Ambercroft Blvd,43.813928,-79.313425
244,Roywood Dr at Fortrose Cres (West),43.765905,-79.329219
245,3370 Pharmacy Ave,43.805754,-79.331609
246,Ameer Ave at Sultana Ave,43.727038,-79.440355
247,Neilson Rd at Malvern Town Centre (East Entrance),43.8079,-79.219949
248,Underhill Dr at Roanoke Rd,43.742,-79.325315
249,Concorde Pl at Concorde Gate South Side,43.729085,-79.328506
250,Finch Ave West at Torresdale Ave West Side,43.772336,-79.451367
251,Queen St East at Saulter St East Side,43.659402,-79.347097
252,Scarborough Golf Club Rd at Lawrence Ave East,43.762027,-79.215999
253,Warden Ave at Metropolitan Rd South Side,43.766822,-79.302799
255,Finch Ave East at Gaspe Rd East Side,43.785766,-79.388562
256,Birchmount Rd at Denison St,43.832649,-79.318647
258,Birchmount Rd at Opposite Walkway to River Grove Dr,43.818437,-79.315416
259,Neilson Rd at Neilson Park Dr,43.81439,-79.226549
260,Bathurst St at Danby Ave,43.749183,-79.437058
261,Drewry Ave at Yonge St West Side,43.787075,-79.417804
262,Eglinton Ave West at Oriole Pkwy East Side,43.705148,-79.40554
263,St Clair Ave East at Herron Ave,43.711293,-79.285075
264,Heathrow Dr at Jane St,43.725031,-79.509209
265,Lawrence Ave West at Benton Rd,43.710145,-79.47202
266,Islington Ave at Milady Rd,43.752433,-79.56851
267,Eglinton Ave East at Birchmount Rd,43.729763,-79.278137
268,Ellesmere Rd at Military Trail (East),43.78669,-79.188167
269,Humberline Dr at Huddersfield Rd,43.743504,-79.62084
270,Birchmount Rd at Danforth Ave,43.696844,-79.263822
271,Lansdowne Ave at Lappin Ave,43.665163,-79.445918
273,Cummer Ave at Yonge St,43.7873,-79.416321
274,Broadview Ave at Dundas St East,43.6626,-79.351506
275,Ossington Ave at Leeds St South Side,43.663872,-79.426518
276,Neilson Rd at Sheppard Ave East,43.798278,-79.217892
277,McNicoll Ave at Don Mills Rd,43.79967,-79.353848
278,Lawrence Ave West at Roxaline St,43.696704,-79.529765
279,St Clair Ave East at Mt Pleasant Rd West Side,43.690306,-79.383911
280,Brown's Line at Horner Ave,43.601827,-79.54543
281,375 Norfinch Dr,43.770165,-79.531686
283,Beechgrove Dr at Dunstall Cres,43.772505,-79.160886
284,Brimley Rd at Dallyn Cres,43.741205,-79.25039
285,Weston Rd at Toryork Dr,43.753493,-79.542887
287,Gerrard St East at De Grassi St,43.66641,-79.348419
288,Coronation Dr at Manse Rd,43.76452,-79.173148
289,Albion Rd at Carrier Dr,43.74558,-79.61401
290,Dufferin St at Supertest Rd,43.777829,-79.468955
292,Lawrence Ave East at Morningside Ave,43.76821,-79.186546
293,The Bridle Path at Park Lane Cir,43.730749,-79.361238
294,Humber College Blvd at Humberline Dr,43.732115,-79.60889
295,Airport Rd at Northwest Dr,43.698901,-79.635642
296,Avenue Rd at Dunblaine Ave,43.735846,-79.41995
297,Runnymede Rd at Deforest Rd,43.648653,-79.4752
298,715 Finch Ave West,43.769727,-79.462373
300,Queen St West at Brock Ave,43.641545,-79.432245
301,William R Allen Rd at Sheppard Ave West South Side,43.749635,-79.463343
302,Kingston Rd at Sandown Ave,43.70858,-79.249674
303,Commissioners St at Logan Ave,43.651835,-79.337506
304,Victoria Park Ave at Meadowacres Dr,43.771798,-79.321251
305,Don Mills Rd at Deerford Rd,43.785281,-79.35057
306,Lawrence Ave East at Markham Rd,43.759631,-79.225553
307,Rogers Rd at Gilbert Ave,43.683445,-79.459325
308,285 Cummer Ave - St John's Rehab Hospital,43.789637,-79.405129
309,Thirtieth St at Elder Ave,43.597919,-79.530991
310,Martin Grove Rd at Rexdale Blvd South Side,43.713568,-79.581134
311,Gerrard St East at University Ave,43.657731,-79.388929
312,Glencairn Ave at Englemount Ave,43.710646,-79.435733
313,Bathurst St at Bainbridge Ave,43.75091,-79.437474
314,Gerrard St East at Marjory Ave,43.668684,-79.337632
315,Fleet St at Strachan Ave,43.636172,-79.410145
316,Carrier Dr at Dansk Crt South Side,43.743515,-79.61471
317,Finch Ave West at Wilmington Ave,43.770363,-79.46065
318,Kennedy Rd at Brigstock Rd,43.761387,-79.279261
320,Morningside Ave at Morningview Trail,43.813343,-79.206063
321,123 Wynford Dr,43.726923,-79.329142
322,Opposite 1685 Finch Ave West - St Wilfreds School,43.760411,-79.503238
323,Finch Ave East at Kenneth Ave,43.780577,-79.412214
324,Royal York Rd at The Queensway,43.626498,-79.50278
325,Rathburn Rd at Islington Ave West Side,43.662364,-79.531737
326,Bayview Ave at Opposite Garnier Park,43.800927,-79.395689
327,Dundas St West at Nottingham Dr,43.655267,-79.522723
328,6807 Steeles Ave West,43.756036,-79.611033
329,Opposite 400 Rockcliffe Blvd - Rockcliffe Middle School,43.674739,-79.488356
330,Old Weston Rd at Turnberry Ave,43.67825,-79.46463
331,Laurentide Dr at Barnwood Crt East Side,43.753092,-79.33874
332,Bay St at Wellesley St West,43.664253,-79.386996
333,Kennedy Rd at Cowdray Crt,43.780431,-79.286698
334,Finch Ave West at Yonge St West Side,43.779728,-79.416164
335,Denton Ave at St Dunstan Dr,43.693583,-79.285951
336,Sheppard Ave West at Maxwell St,43.754151,-79.445628
337,McCowan Rd at Alton Towers Cir (North),43.82702,-79.276064
338,Donlands Ave at Torrens Ave,43.69285,-79.342456
339,Sheppard Ave East at Doris Ave,43.762274,-79.408102
340,800 Royal York Rd,43.63922,-79.508702
341,Lawrence Ave East at Warden Ave,43.745187,-79.295013
342,Humberline Dr at Viewcrest Cir,43.732276,-79.617211
343,Avenue Rd at Balmoral Ave North Side,43.684707,-79.400532
344,St Clair Ave East at Westview Blvd,43.706133,-79.310074
345,2002-2012 Sheppard Ave West,43.738711,-79.516709
346,Finch Ave West at Highway 27,43.73388,-79.603867
347,Kipling Ave at Tyre Ave,43.64501,-79.536573
348,Markham Rd at Lawrence Ave East,43.759679,-79.225072
350,Leslie St at Southwell Dr North Side,43.746257,-79.358382
352,Opposite 111 Disco Rd,43.700349,-79.599302
353,Midland Ave at Wilkie Ave,43.71552,-79.250145
355,Leslie St at Ballyronan Rd,43.749395,-79.359037
356,Opposite 25 Kodiak Cres,43.754066,-79.46622
358,Culford Rd at George Anderson Dr,43.703148,-79.486494
360,Warden Ave at Glenbourne Park Dr,43.882273,-79.34063
361,Finch Ave East at Bridletowne Circle (East),43.797673,-79.312116
362,Varna Dr at Rondale Blvd North Side,43.721389,-79.440968
363,Brimley Rd at Arnprior Rd South Side,43.751152,-79.254486
364,Ellesmere Rd at Zaph Ave,43.79184,-79.166565
365,185 Yorkland Blvd,43.771262,-79.335442
367,Brimley Rd at Danjohn Cres (North) South Side,43.812873,-79.280655
368,Eglinton Ave West at Islington Ave,43.679694,-79.539176
369,Victoria Park Ave at Dawes Rd,43.706606,-79.294903
370,Brimley Rd at Grittani Lane South Side,43.780833,-79.265503
371,Kingston Rd at Lee Ave,43.678012,-79.301308
372,Leslie St at Kirkwood Rd,43.756517,-79.360962
373,Jane St at Ardagh St,43.655651,-79.486964
374,Stephen Dr at Whitworth Ave,43.632393,-79.485187
375,Woodbine Ave at Sammon Ave,43.69125,-79.315303
376,Main St Markham North at Ramona Blvd - Markham GO Station,43.88287,-79.261889
377,Broadview Ave at Withrow Ave,43.669859,-79.353435
378,McNicoll Ave at Placer Crt,43.803283,-79.342119
379,125 The Queensway,43.630685,-79.482249
380,Rexleigh Dr at St Clair Ave East,43.706475,-79.30699
382,Dixon Rd at Wincott Dr,43.695627,-79.552328
383,Brimley Rd at Gully Dr South Side,43.743455,-79.251289
384,Broadview Ave at Jack Layton Way,43.666481,-79.353132
385,St Clair Ave East at Selwyn Ave,43.707088,-79.305805
386,St Clair Ave East at Andrew Ave,43.720079,-79.244714
387,Kipling Ave at Genthorn Ave,43.723547,-79.572536
388,The Queensway at South Kingsway,43.635819,-79.473052
390,60 Park Lane Cir,43.729346,-79.367119
391,Opposite 225 Carrier Dr,43.749175,-79.615811
394,Leslie St at Marowyne Dr,43.775075,-79.364803
395,Lawrence Ave East at Tremont Cres (West) West Side,43.735106,-79.353626
396,Progress Ave at Sheppard Ave East South Side,43.794213,-79.234918
397,Lansdowne Ave at Davenport Rd,43.671425,-79.448192
398,Chesswood Dr at Vanley Cres (South)  South Side,43.759209,-79.47809
399,Milner Ave at Neilson Rd,43.795603,-79.216322
400,Peckham Ave at Donnalyn Dr South Side,43.790595,-79.436822
401,Ellesmere Rd at Morrish Rd,43.790274,-79.173121
402,Tapscott Rd at McLevin Ave,43.805224,-79.227067
403,Eglinton Ave West at Scarlett Rd,43.683789,-79.511557
404,Weston Rd at Bartonville Ave West,43.689401,-79.496555
406,Evans Ave at Sherway Gate West Side,43.609022,-79.556933
407,Mimico Ave at Royal York Rd,43.61236,-79.496407
408,Finch Ave West at Halesia Dr,43.733658,-79.606898
409,Midland Ave at Dorcot Ave,43.757824,-79.267294
411,Trethewey Dr at Brookhaven Dr,43.696817,-79.494201
412,McCowan Rd at Big Red Ave North Side,43.814781,-79.270447
414,Brenyon Way at Sheppard Ave East,43.800741,-79.207086
416,Triton Rd at Brimley Rd,43.773658,-79.261533
417,Belfield Rd at Shaft Rd West Side - Etobicoke North GO Stati,43.704066,-79.566634
418,Islington Ave at Kingsview Blvd,43.699602,-79.547712
419,Kipling Ave at Redwater Dr,43.715401,-79.568295
421,Sutherland Dr at Bayview Ave,43.698816,-79.372316
422,North Queen St at Medulla Ave,43.62126,-79.54552
424,Brimley Rd at Eglinton Ave East,43.736862,-79.248419
425,Victoria Park Ave at Meadow Ave,43.681801,-79.28454
426,Avenue Rd at Bloor St West North Side,43.669222,-79.394239
427,Middlefield Rd at Nashdene Rd North Side,43.817581,-79.260909
428,Belfield Rd at Shaft Rd - Etobicoke North GO Station,43.703944,-79.566147
429,Prince Edward Dr South at Fairmar Ave,43.637559,-79.500826
430,75 Norfinch Dr,43.759874,-79.528818
431,Royal York Rd at Yorkleigh Ave,43.694243,-79.531969
432,275 Grandravine Dr,43.74816,-79.508358
433,Clonmore Dr at Cornell Ave,43.691784,-79.275172
434,Leslie St at Lesmill Rd,43.763557,-79.361675
436,Progress Ave at William Kitchen Rd West Side,43.770157,-79.27927
437,Midland Ave at Wolfe Ave,43.727054,-79.254847
438,Colonel Samuel Park at Opposite Humber College Cottages C-M,43.595725,-79.515972
439,Jones Ave at Gerrard St East North Side,43.669595,-79.335655
440,Arrow Rd at Pemican Crt North Side,43.749441,-79.532558
442,Ellesmere Rd at Dolly Varden Blvd West Side,43.775797,-79.235291
443,Lumsden Ave at Westlake Ave,43.694261,-79.308634
444,836 Davenport Rd East Side,43.676337,-79.419967
445,Gerrard St East at Malvern Ave,43.685056,-79.294792
446,Brimorton Dr at Dalehurst Ave,43.770724,-79.21432
447,Bloor St West at Colborne Lodge Dr,43.653432,-79.465379
448,Thirtieth St at Elder Ave,43.597687,-79.530664
449,Royal York Rd at Glenroy Ave,43.642141,-79.509142
450,Progress Ave at Milner Ave,43.790487,-79.234372
452,Horner Ave at Connorvale Ave,43.605477,-79.528801
453,Eglinton Ave East at Jonesville Cres,43.725127,-79.306649
454,Islington Ave at The Westway South Side,43.68824,-79.542872
455,Milner Ave at McCowan Rd East Side,43.785461,-79.255629
456,75 Tandridge Cres,43.728963,-79.546
457,Spadina Rd at Strathearn Blvd South Side,43.690717,-79.413588
458,Runnymede Rd at Morningside Ave,43.645951,-79.474253
459,Victoria Park Ave at Combermere Dr South Side,43.7558,-79.314681
460,Martin Grove Rd at Albion Rd,43.741497,-79.593786
461,Pape Ave at Harcourt Ave,43.677622,-79.344439
462,Bayview Ave at Cummer Ave,43.792145,-79.393441
463,Dundas St West at Bloor St West,43.6561,-79.45233
464,Queen St West at Palmerston Ave,43.646763,-79.406434
465,480 Gordon Baker Rd,43.809298,-79.345222
466,Warden Ave at Kingston Rd,43.688074,-79.27117
467,Scarlett Rd at Foxwell St South Side,43.66854,-79.501042
468,Evans Ave at Eastwick Rd West Side,43.617783,-79.51559
469,McCowan Rd at Bridlegrove Dr,43.7345,-79.236519
470,Woodbine Ave at Bracebridge Ave North Side,43.69795,-79.317958
471,Steeles Ave East at Lillian St East Side,43.799781,-79.41153
472,O'Connor Dr at Woodmount Ave,43.699373,-79.321548
473,Steeles Ave West at Murray Ross Pkwy,43.776613,-79.516784
474,Brimley Rd at Heather Rd South Side,43.790306,-79.269974
475,Finch Ave West at Humber College Blvd East Side,43.733914,-79.609339
477,Carlton St at Ontario St,43.663621,-79.37064
478,Midland Ave at Lockie Ave North Side,43.78933,-79.280053
480,Dundas St West at Royalavon Cres,43.645406,-79.531899
481,Finch Ave West at Tangiers Rd,43.764272,-79.488069
482,Birchmount Rd at Ellesmere Rd,43.763616,-79.291569
483,Annette St at Clendenan Ave,43.662086,-79.472496
484,Bathurst St at Marquette Ave,43.734195,-79.433342
485,Victoria Park Ave at Swanwick Ave,43.685254,-79.285963
486,Steeles Ave East at Putnam Gate,43.822702,-79.311866
487,Middlefield Rd at Steeles Ave East,43.832957,-79.268141
489,Yorkdale Rd at Yorkdale Mall (North Entrance),43.728242,-79.453438
490,Lawrence Ave West at Shermount Ave,43.716859,-79.441035
491,Harbord St at St George St,43.663842,-79.398673
492,Rathburn Rd at Cedarland Dr,43.661376,-79.535773
493,Craigton Dr at Pharmacy Ave,43.727075,-79.298426
494,McCowan Rd at Raymerville Dr (North),43.881381,-79.28777
495,Parliament St at Richmond St East,43.65445,-79.363856
497,Sheppard Ave East at Murison Blvd West Side,43.798969,-79.214298
498,Gerrard St East at Leslie St,43.66988,-79.332933
499,Steeles Ave West at Emerald Lane,43.793572,-79.440815
500,Eglinton Ave West at Martin Grove Rd East Side,43.674419,-79.562591
501,Opposite 685 Finch Ave West - St Bernard's Residence,43.771053,-79.457455
502,Driftwood Ave at Wilmont Dr,43.759887,-79.516325
503,Eglinton Ave East at Torrance Rd West Side,43.739553,-79.235824
504,Bayview Ave at Millwood Rd,43.70415,-79.374446
505,Albion Rd at Sanagan Rd,43.738903,-79.576364
506,2040 Don Mills Rd,43.763142,-79.347344
507,Rogers Rd at Northcliffe Blvd,43.686109,-79.443821
509,Rathburn Rd at The East Mall East Side,43.655001,-79.563677
510,Sheppard Ave East at Walkway to Howell Sq,43.797075,-79.22322
511,Roncesvalles Ave at Galley Ave,43.642982,-79.447845
512,Queen St East at Ontario St,43.655161,-79.366816
513,Sheppard Ave East at Walkway to Hutcherson Sq,43.797653,-79.220285
514,Lawrence Ave West at Brucewood Cres,43.71859,-79.432803
515,Sheppard Ave East at Murison Blvd East Side,43.799156,-79.212357
516,North Queen St at The Queensway,43.614581,-79.5565
518,Yonge St at Wellesley St East - Wellesley Station,43.664812,-79.38436
519,Kingston Rd at Beech Ave,43.680164,-79.290892
520,Bathurst St at Walkway to Mullen Dr,43.796714,-79.446841
521,St Clair Ave East at St Columba Pl,43.705761,-79.31061
522,Albion Rd at Carrier Dr,43.745412,-79.61457
523,Ellesmere Rd at Packard Blvd,43.770694,-79.257782
524,Princess Margaret Blvd at Lloyd Manor Rd,43.667319,-79.552488
525,Kipling Ave at Kidron Valley Dr,43.756076,-79.588057
526,Sherbourne St at Wellesley St East,43.666898,-79.374519
527,Bay St at Elm St,43.657387,-79.384516
529,Morningview Trail at Gennela Sq,43.814468,-79.202932
530,Warden Ave at Apartments (South of Finch),43.794836,-79.315109
531,Wellesworth Dr at Gentian Dr,43.665383,-79.581455
532,Bathurst St at Shelborne Ave,43.715842,-79.428833
533,Jane St at Stanley Rd,43.743153,-79.514309
534,Finch Ave West at Goldfinch Crt East Side,43.772257,-79.450489
536,Dufferin St at Auburn Ave,43.675621,-79.442182
538,McCowan Rd at Benleigh Dr,43.75845,-79.246336
539,East Ave at Maberley Cres (North),43.785051,-79.133342
540,College St at Bay St,43.66092,-79.385569
541,Sloane Ave at Sweeney Dr South Side,43.735468,-79.312392
542,Lake Shore Blvd West at Colonel Samuel Smith Park Dr,43.598047,-79.517179
543,Finch Ave West at Virgilwood Dr - North York General Finch B,43.772698,-79.448324
545,East Ave at East Willow Gate,43.787304,-79.134296
546,Caledonia Rd at Corby Ave,43.684866,-79.458857
547,Ossington Ave at Dundas St West,43.649438,-79.420865
548,Brimley Rd at Strode Dr South Side,43.739428,-79.24961
549,Rockcliffe Blvd at Lambton Ave South Side,43.682009,-79.4916
550,Kipling Ave at Rathburn Rd,43.659757,-79.542992
551,Upper Canada Dr at Lord Seaton Rd (East),43.75965,-79.396442
552,Bathurst St at Wilson Ave,43.737188,-79.433814
554,Martin Grove Rd at Vulcan St,43.704926,-79.576812
555,The East Mall at Bloor St West,43.636832,-79.556401
556,McNicoll Ave at Michael Dr,43.803074,-79.364838
557,Ellesmere Rd at Military Trail (East),43.786439,-79.188422
558,Lawrence Ave East at Meadowvale Rd,43.775359,-79.156006
559,Wellesley St West at Queen's Park Cres East East Side,43.663633,-79.390156
560,Davenport Rd at Belmont St,43.674638,-79.392555
561,Wilson Ave at Murray Rd,43.729408,-79.471718
562,Sheppard Ave East at Maris Shepway East Side,43.771924,-79.360843
563,Victoria Park Ave at Ivordale Cres (South) South Side,43.752862,-79.313674
564,Bay St at Albert St,43.652891,-79.382492
565,Laird Dr at Canvarco Rd,43.703666,-79.360697
566,Coxwell Ave at Cosburn Ave,43.694002,-79.327834
567,McLevin Ave at Malvern St,43.799705,-79.237767
569,Davisville Ave at Bayview Ave West Side,43.702938,-79.374563
570,Westlake Ave at Hamstead Ave,43.696423,-79.309042
571,Sherbourne St at Gerrard St East,43.661373,-79.372381
572,Bathurst St at Clark Ave West South Side,43.802899,-79.448396
573,Spadina Rd at Bernard Ave South Side,43.671797,-79.405979
575,Keele St at Grandravine Dr,43.751925,-79.487981
576,35 Thorncliffe Park Dr,43.701905,-79.344381
578,Milvan Dr at Penn Dr (South),43.75159,-79.5531
580,Midland Ave at Stubbswood Sq,43.794831,-79.282368
581,Drewry Ave at Grantbrook St,43.783394,-79.433869
583,Mortimer Ave at Woodbine Ave,43.692596,-79.315977
584,295 Danforth Rd,43.701442,-79.271596
585,High Park Ave at Humberside Ave,43.660406,-79.468086
586,Finch Ave East at Tollerton Ave,43.786413,-79.386577
587,Sheppard Ave East at Midland Ave,43.78511,-79.279041
588,Jane St at Troutbrooke Dr North Side,43.732115,-79.51113
589,Yonge Blvd at Yonge St West Side,43.734367,-79.404989
590,Kingston Rd at Parkcrest Dr,43.73564,-79.220356
591,Eglinton Ave East at Kingston Rd,43.743796,-79.212135
592,Consumers Rd at Victoria Park Ave West Side,43.771883,-79.322301
593,130 Bellamy Rd North,43.742221,-79.230355
595,Townsend Rd at Freshmeadow Dr,43.810118,-79.356868
596,Bradstock Rd at Weston Rd East Side,43.739021,-79.538944
597,Islington Ave at The Queensway North Side,43.624047,-79.514742
598,Evans Ave at Arnold St West Side,43.616633,-79.520893
599,Evans Ave at Islington Ave West Side,43.618229,-79.51288
600,Kennedy Rd at Linwood Ave,43.79345,-79.29257
601,Murison Blvd at Milner Ave North Side,43.799295,-79.202522
602,Kingston Rd at Old Kingston Rd,43.774223,-79.182991
603,The Queensway at Park Lawn Rd East Side,43.629138,-79.489215
604,Dundas St West at Humber Hill Ave,43.665097,-79.501201
605,Kingston Rd at McCowan Rd,43.725443,-79.232312
606,Kipling Ave at Ronson Dr,43.702689,-79.562632
607,Opposite 3471 McNicoll Ave,43.822752,-79.254543
609,Grantbrook St at Finch Ave West,43.77643,-79.431862
610,Gerrard St East  at Glenmount Park Rd,43.682773,-79.305845
611,Lansdowne Ave at College St,43.651115,-79.440132
612,Neilson Rd at Keeler Blvd,43.790075,-79.211457
613,Markham Rd at Golden Ave,43.848191,-79.253938
614,Pharmacy Ave at Opposite Walkway to Crayford Dr,43.813902,-79.335235
615,Royal York Rd at Cavell Ave South Side,43.614676,-79.497843
616,Wilson Ave at Clyde Ave West Side,43.738736,-79.427049
617,Opposite 1686 Albion Rd,43.742378,-79.597507
618,Lawrence Ave West at Pine St,43.702096,-79.508129
619,Bayview Ave at Parkhurst Blvd North Side,43.708992,-79.376295
620,Spadina Ave at Front St West North Side,43.643182,-79.394027
621,Steeles Ave West at Carpenter Rd West Side,43.792072,-79.448117
623,Faywood Blvd at Reiner Rd,43.749609,-79.450079
624,O'Connor Dr at Cranborne Ave,43.723135,-79.302819
625,Steeles Ave West at Martin Grove Rd,43.758023,-79.60324
627,Lesmill Rd at Duncan Mill Rd,43.760484,-79.358302
628,Drewry Ave at Marathon Cres (East),43.78207,-79.440435
632,4979 Bathurst St,43.775615,-79.443268
634,Queen St East at Jarvis St,43.653602,-79.373383
635,Yonge St at Charles St West,43.668841,-79.386282
636,Warden Ave at Glen Springs Dr,43.804646,-79.320021
637,Midland Ave at Silver Star Blvd,43.807186,-79.288962
638,Warden Ave at Bridge to Markham Theatre,43.858114,-79.334684
640,The Queensway at Zorra St,43.621791,-79.522414
641,Cummer Ave at Leslie St,43.801133,-79.370964
642,Midland Ave at Progress Ave,43.772736,-79.272762
643,North Queen St at Index Rd West Side,43.619313,-79.555066
645,533 Lansdowne Ave,43.655682,-79.441766
646,Anglesey Blvd at Pinehurst Cres East Side,43.6631,-79.524373
647,Kipling Ave at Eglinton Ave West,43.677048,-79.550647
648,Caledonia Rd at Castlefield Ave,43.698567,-79.463624
649,Opposite 2278 Brimley Rd,43.796697,-79.272467
650,Sentinel Rd at The Pond Rd South Side,43.769379,-79.5024
651,Lawrence Ave East at Bennett Rd,43.773036,-79.166039
652,The Bridle Path at Lawrence Ave East,43.733152,-79.364427
653,555 Trethewey Dr,43.696575,-79.491082
654,Vaughan Rd at Humewood Dr,43.688739,-79.428738
655,Dupont St at Manning Ave,43.672342,-79.418331
656,Bathurst St at Harbord St,43.661614,-79.409887
657,Birchmount Rd at Kingston Rd North Side,43.693823,-79.262534
658,Royal York Rd at Renault Cres North Side,43.686157,-79.52813
659,Bloor St West at Grace St,43.663363,-79.418948
660,Islington Ave at Jutland Rd,43.629036,-79.517124
661,Danforth Ave at Woodington Ave,43.684044,-79.320702
662,Gateway Blvd South Side at Grenoble Dr South Side,43.711661,-79.330127
663,Drewry Ave at Hilda Ave,43.785736,-79.42395
664,The East Mall at Rathburn Rd,43.654763,-79.563999
665,Finch Ave West at Milvan Dr,43.750105,-79.552105
666,Birchmount Rd at Flora Dr,43.741996,-79.282498
670,East Ave at Wheeling Dr,43.782809,-79.132408
672,Finch Ave West at Romfield Lane,43.762438,-79.493647
674,University Ave at College St - Queen's Park Station,43.659717,-79.390178
675,Steeles Ave West at Yonge St - Centerpoint Mall,43.797286,-79.422816
676,80 Coe Hill Dr,43.640484,-79.472043
677,Cummer Ave at Conacher Dr,43.791653,-79.396537
679,Rathburn Rd at Kipling Ave,43.659715,-79.543335
680,Eglinton Ave West at Royal York Rd,43.68247,-79.526336
681,193 Morningview Trail,43.818227,-79.199824
682,24 Fenmar Dr,43.758823,-79.537655
683,College St at Lansdowne Ave,43.651168,-79.439866
684,Eglinton Ave East at Danforth Rd,43.737338,-79.245756
685,Bathurst St at Dewlane Dr,43.78586,-79.445832
686,Lawrence Ave East at Weybourne Cres East Side,43.725694,-79.399003
687,Thistle Down Blvd at Dashwood Cres (South),43.740063,-79.556304
689,Dufferin St at Bridgeland Ave South Side,43.726345,-79.457682
690,Opposite 100 Carrier Dr,43.739311,-79.612839
691,19 Park Lane Cir,43.735003,-79.375792
695,Opposite 1450 Don Mills Rd,43.752754,-79.346954
696,Hambly Ave at Queen St East North Side,43.670942,-79.296867
697,Eglinton Ave East at Sinnott Rd,43.72919,-79.280808
698,Pharmacy Ave at Denton Ave,43.694401,-79.284381
699,Sheppard Ave East at Settlers Rd,43.774798,-79.326438
700,Bayview Ave at Blythwood Rd,43.720818,-79.378698
701,Yonge St at Woodlawn Ave East,43.683811,-79.392236
702,Evans Ave at Islington Ave,43.618189,-79.511567
703,Judson St at Horner Ave,43.612349,-79.515013
705,1138 Bathurst St,43.675365,-79.415294
706,Victoria Park Ave at Woodale Ave,43.683422,-79.285188
708,Senlac Rd at Lurgan Dr,43.774582,-79.429513
709,Toba Dr at Fifeshire Rd West Side,43.756369,-79.389999
710,Dixon Rd at Tamarack Cir,43.698427,-79.539973
711,Military Trail at Bobmar Rd,43.782638,-79.177488
712,Leslie St at Steeles Ave East South Side,43.807738,-79.372397
713,Bellamy Rd North at Brimorton Dr,43.767241,-79.238936
714,McCowan Rd at 14Th Ave,43.849399,-79.279883
715,Flint Rd at Supertest Rd,43.775121,-79.481022
716,William R Allen Rd at Sheppard Ave West,43.750021,-79.463105
717,Sheppard Ave East at Kennedy Rd,43.783432,-79.288075
718,Islington Ave at Rathburn Rd South Side,43.662127,-79.531147
719,Lake Shore Blvd West at Norris Cres,43.610699,-79.489978
720,McRae Dr at Rumsey Rd,43.707391,-79.367245
721,St Regis Cres North at Bakersfield St,43.75704,-79.481072
722,Willowdale Ave at Byng Ave,43.778044,-79.405499
723,Kingston Rd at Lawrence Ave East,43.767363,-79.189589
724,Bayview Ave at Ruddington Dr,43.787893,-79.392586
725,Kennedy Rd at Perthshire St,43.809073,-79.300661
727,Victoria Park Ave at Eglinton Ave East,43.724094,-79.302236
728,Finchdene Sq (East) at Torham Pl South Side,43.819452,-79.233233
730,Martin Grove Rd at Belfield Rd,43.702095,-79.575866
731,Port Union Rd at Clappison Blvd,43.7815,-79.137591
732,Willowdale Ave at Bishop Ave North Side,43.7837,-79.407812
734,Elm Ave at Sherbourne St,43.675161,-79.377707
735,Sloane Ave at Kenewen Crt,43.734144,-79.311312
736,Steeles Ave East at Tarbert Rd,43.804084,-79.392106
738,McCowan Rd at Anson Ave,43.72664,-79.233247
739,Sheppard Ave West at Yeomans Rd East Side,43.754366,-79.443496
740,Belfield Rd at C.N. West Spur,43.699972,-79.583628
742,Cordova Ave at Central Park Roadway,43.647886,-79.52675
743,Warden Ave at Glencove Dr,43.859654,-79.334719
744,Foxwell St at Jane St,43.671507,-79.493975
745,Spadina Rd at Old Forest Hill Rd,43.699125,-79.417129
746,Kingston Rd at Fenwood Heights West Side,43.727383,-79.230088
747,Sheppard Ave West at Wilson Heights Blvd East Side,43.751748,-79.4556
748,Eglinton Ave East at Mt Pleasant Rd,43.708536,-79.389991
749,McCowan Rd at Commander Blvd North Side,43.796506,-79.261528
750,Oriole Pkwy at College View Ave South Side,43.702134,-79.405063
751,King St East at Parliament St,43.652556,-79.363371
752,1111 Finch Ave West,43.767047,-79.474414
755,Weston Rd at Coronado Crt,43.740185,-79.539566
756,Dixon Rd at Kipling Ave,43.694487,-79.558316
757,Annette St at Keele St West Side,43.663871,-79.46439
758,130 Commissioners St,43.647582,-79.347458
759,Thistle Down Blvd at Bridgenorth Cres,43.738805,-79.552533
761,McCowan Rd at 14Th Ave North Side,43.850231,-79.279673
762,Dupont St at Dufferin St,43.66854,-79.438783
763,Lawrence Ave East at Ben Stanton Blvd East Side,43.756956,-79.238185
764,Broadview Ave at Mountstephen St,43.664096,-79.35214
766,Davenport Rd at Bathurst St,43.676626,-79.415962
767,Dixon Rd at Kipling Ave,43.694072,-79.558873
768,Jane St at Sheppard Ave West South Side,43.738911,-79.513248
769,Martin Grove Rd at Ronson Dr,43.693836,-79.572034
770,Don Mills Rd at Seneca Hill Dr,43.790373,-79.354328
771,Huntingwood Dr at Victoria Park Ave East Side,43.780401,-79.32483
772,Gary Dr at Langside Ave,43.711073,-79.518539
774,Islington Ave at Rathburn Rd,43.662257,-79.530948
777,Albion Rd at Martin Grove Rd,43.742028,-79.593932
778,O'Connor Dr at Gardens Cres,43.708139,-79.310704
779,Islington Ave at Van Dusen Blvd,43.641412,-79.521937
780,Pape Ave at Mortimer Ave,43.685846,-79.347563
781,Tuscan Gate at St Regis Cres (South) South Side,43.75402,-79.483974
782,Markham Rd at Markanna Dr,43.740623,-79.217674
783,Roncesvalles Ave at Grenadier Rd,43.648639,-79.449872
784,Welland Ave at Heath St East,43.692921,-79.38026
786,McNicoll Ave at Hines Dr,43.801462,-79.348424
787,Lloyd Manor Rd at Firwood Cres,43.665524,-79.550939
788,Sherbourne St at Dundas St East North Side,43.658793,-79.371128
789,Humberwood Blvd at Arborwood Dr,43.723541,-79.618849
790,Coxwell Ave at Hanson St,43.679678,-79.322
792,80 Progress Ave,43.771997,-79.275892
794,Dufferin St at Alma Ave,43.644682,-79.429661
795,McNicoll Ave at Birchmount Rd,43.808458,-79.311412
796,Eglinton Ave West at Lascelles Blvd East Side,43.705641,-79.403202
797,Lawrence Ave East at Opposite Cedarbrae Mall,43.758785,-79.230855
798,Morningside Ave at Ellesmere Rd,43.785187,-79.193109
799,Queen St West at Dovercourt Rd,43.643393,-79.422528
800,Sheppard Ave East at Brimley Rd East Side,43.787581,-79.267739
802,Bayview Ave at Fifeshire Rd (South) South Side,43.75459,-79.385637
803,Parkview Hill Cres at Aspen Ave (North) East Side,43.704395,-79.328255
804,MacPherson Ave at Spadina Rd,43.675731,-79.407767
805,Queen St West at Augusta Ave,43.647951,-79.399869
806,Steeles Ave East at Victoria Park Ave West Side,43.815581,-79.342165
807,451 The West Mall,43.646775,-79.567698
808,Main St Markham North at Highway 7,43.873549,-79.259546
809,Sheppard Ave East at Leslie St East Side - North York Genera,43.771591,-79.363431
810,College St at Euclid Ave,43.655822,-79.411298
811,Lawrence Ave East at Manse Rd East Side,43.770643,-79.175848
812,Dundas St East at Ontario St,43.658961,-79.368357
813,McNicoll Ave at Myers Lane,43.803048,-79.367798
814,Queen's Park Cres East at Wellesley St West,43.663459,-79.390475
815,Alliance Ave at Jane St,43.676316,-79.495269
816,College St at Rusholme Park Cres,43.652817,-79.429769
817,Runnymede Rd at Maher Ave,43.662105,-79.480571
818,Dupont St at Symington Ave,43.665626,-79.451366
819,Birchmount Rd at St Clair Ave East South Side,43.713521,-79.270951
820,Steeles Ave East at McCowan Rd,43.830837,-79.275525
821,Islington Ave at Fordwich Cres,43.727108,-79.560871
822,Old Kingston Rd at Military Trail,43.782122,-79.172674
823,Progress Ave at Markham Rd West Side,43.781656,-79.234801
824,Lawrence Ave West at Royal York Rd,43.696286,-79.532489
825,345 Morningside Ave,43.775468,-79.18886
826,Millwood Rd at Randolph Rd,43.702915,-79.362657
827,Lawrence Ave East at Underhill Dr,43.740918,-79.324491
828,Annette St at Indian Road Cres,43.663915,-79.460776
829,Major Mackenzie Dr East at McCowan Rd,43.903281,-79.293772
830,Sheffield St at Hafis Rd,43.706257,-79.47105
831,Danforth Rd at Carslake Cres South,43.746255,-79.244464
832,Danforth Ave at Greenwood Ave,43.681564,-79.332253
833,McNicoll Ave at Midland Ave,43.814703,-79.291996
834,Ellesmere Rd at Calthorpe Ave,43.788586,-79.180524
835,Harbord St at Brunswick Ave,43.662181,-79.406126
836,Sheppard Ave East at Palmdale Dr,43.77783,-79.311293
840,1300 Leslie St,43.731982,-79.355501
841,Victoria Park Ave at Curlew Dr South Side,43.747467,-79.311799
842,Faywood Blvd at Goodwill Ave,43.737002,-79.447053
843,Steeles Ave East at Mountcastle Gate,43.820394,-79.320622
844,Secord Ave at Palmer Ave East Side,43.693011,-79.300461
845,Steeles Ave West at Founders Rd - York University,43.779428,-79.504234
848,Underhill Dr at Cassandra Blvd (North) South Side,43.75243,-79.326374
849,Bathurst St at Covington Rd,43.721136,-79.430335
850,Mt Pleasant Rd at Sherwood Ave,43.714879,-79.392503
851,Drewry Ave at Fairchild Ave,43.786246,-79.421537
852,Warden Ave at Sheppard Ave East,43.77887,-79.308173
853,Kennedy Rd at Norcap Ave,43.797157,-79.294171
854,Bloor St West at Indian Rd,43.655222,-79.457156
855,Opposite 4345 Bloor St West,43.631124,-79.577346
856,Bayview Ave at Lawrence Ave East - York University Glendon C,43.727267,-79.381567
858,Main St at Kingston Rd,43.67926,-79.298179
859,St Clair Ave West at Britannia Ave,43.669394,-79.481314
860,North Queen St at Nova Rd,43.616293,-79.557141
862,3292 Bayview Ave,43.789946,-79.393248
863,King St East at Sherbourne St,43.651169,-79.368367
864,Shaw St at Adelaide St West,43.642626,-79.415367
865,Martin Grove Rd at Rampart Rd,43.733945,-79.590127
866,Kennedy Rd at Antrim Cres South Side,43.771331,-79.283286
868,Pharmacy Ave at Janet Blvd,43.74203,-79.304235
869,Runnymede Rd at Webb Ave,43.658554,-79.479255
870,Spadina Ave at Richmond St West,43.6476,-79.395827
872,Wilson Heights Blvd at Waterloo Ave,43.75522,-79.459703
873,Lawrence Ave East at Centennial Rd,43.777575,-79.145968
874,Midland Ave at Salome Dr,43.781639,-79.276398
875,Queen's Park at Charles St West - Museum Station,43.667095,-79.393584
876,Eglinton Ave West at Walkway to Emmett Ave,43.684593,-79.508136
877,College St at Ossington Ave,43.654475,-79.422554
878,Finch Ave East at Maxome Ave,43.783459,-79.399176
879,East Ave at Clark Secor Pl North Side,43.78995,-79.135406
880,Old Dundas St at Humber Hill Ave,43.6645,-79.501435
881,Pharmacy Ave at Ellesmere Rd,43.759303,-79.3104
882,209 Carrier Dr,43.747234,-79.615107
883,Parkside Dr at Howard Park Ave,43.648781,-79.457901
884,Wilson Ave at King High Ave,43.735702,-79.442466
885,Sheppard Ave West at Jane St,43.73919,-79.513494
886,Rockcliffe Blvd at Caesar Ave South Side,43.678867,-79.490268
887,Davisville Ave at Acacia Rd,43.699932,-79.389138
888,Rockcliffe Blvd at Alliance Ave,43.676751,-79.489207
889,Gervais Dr at Wynford Dr South Side,43.723081,-79.336445
890,St Clair Ave East at Pharmacy Ave East Side,43.709822,-79.290466
891,Kipling Ave at Hinton Rd,43.725707,-79.573246
892,Birchmount Rd at Bibury Gate,43.829409,-79.317494
893,Kipling Ave at Westhumber Blvd,43.72821,-79.574872
894,McNicoll Ave at Bedle Ave,43.799485,-79.35716
895,Progress Ave at Roadway to Centennial College,43.783526,-79.231618
897,St Clair Ave East at Midland Ave,43.71894,-79.251064
898,150 Staines Rd West Side,43.822964,-79.219024
899,McNicoll Ave at Picola Crt,43.801676,-79.348388
901,Islington Ave at Summitcrest Dr,43.683282,-79.540697
902,Glencairn Ave at Ennerdale St,43.706808,-79.455427
904,Ancaster Rd at Powell Rd South Side,43.73656,-79.467968
905,Leslie St at Marowyne Dr,43.774721,-79.364412
906,Ferris Rd at Dawes Rd West Side,43.706312,-79.296023
907,Warden Ave at Eglinton Ave East North Side,43.728424,-79.287699
908,Finch Ave East at Yonge St - Finch Station,43.780191,-79.414106
909,Royal York Rd at Yorkleigh Ave,43.694162,-79.531677
910,Yonge St at Lytton Blvd,43.716726,-79.400585
911,McCowan Rd at Alton Towers Cir (South),43.822377,-79.273762
913,Duncan Mill Rd at Valleybrook Dr,43.761898,-79.352804
914,Jane St at Firgrove Cres (North) South Side,43.754548,-79.517122
916,Islington Ave at Albion Rd,43.7377,-79.565693
917,St Clair Ave East at O'Connor Dr East Side,43.705462,-79.312134
918,Sherbourne St at Carlton St,43.663382,-79.373214
919,Cummer Ave at Craigmont Dr,43.797161,-79.379136
920,Bayview Ave at Blythwood Rd South Side,43.720431,-79.378945
921,Don Mills Rd at Green Belt Dr North Side,43.727486,-79.340618
922,Avoca Ave at Pleasant Blvd South Side,43.688534,-79.389352
923,McNicoll Ave at Victoria Park Ave  East Side,43.804215,-79.335379
924,Brimley Rd at Lawrence Ave East,43.753732,-79.255604
925,Jane St at Exbury Rd North Side,43.729646,-79.510597
927,Steeles Ave East at Townsend Rd West Side,43.811939,-79.358022
928,Wilson Ave at Julian Rd West Side - Humber River Hospital,43.724669,-79.491492
929,College St at Lansdowne Ave,43.650681,-79.440227
930,Keele St at Lawrence Ave West,43.708825,-79.478254
931,Craigton Dr at Rannock St East Side,43.727717,-79.300106
932,Royal York Rd at Dalesford Rd,43.624359,-79.501631
933,College St at Grace St,43.654987,-79.415437
934,Annette St at Jane St East Side,43.658296,-79.487694
935,Queen St West at Claremont St,43.646157,-79.409404
936,Leslie St at Finch Ave East,43.790417,-79.368339
937,Don Mills Rd at The Donway East (South) North Side,43.732636,-79.342026
938,Neilson Rd at Crow Trail,43.812353,-79.225946
939,Mortimer Ave at Donlands Ave,43.687502,-79.340447
940,Chaplin Cres at Lascelles Blvd,43.698153,-79.4006
942,Cosburn Ave at Binswood Ave,43.694898,-79.324088
943,Eglinton Ave East at Banff Rd,43.710122,-79.38211
946,Oakwood Ave at Rosemount Ave,43.678178,-79.435399
947,Sheppard Ave East at Boydwood Lane,43.80462,-79.15811
948,Clayson Rd at Wilson Ave,43.718465,-79.523435
950,Arleta Ave at John Lindsay Crt,43.745902,-79.502119
951,Kipling Ave at Birmingham St,43.600828,-79.518202
952,Dundas St West at Windermere Ave,43.665544,-79.48605
953,Nugget Ave at Markham Rd,43.798356,-79.241759
954,Keele St at Rustic Rd,43.717966,-79.480244
955,Yonge St at Lord Seaton Rd South Side,43.752127,-79.408292
956,Rogers Rd at Prospect Cemetery,43.683669,-79.45434
957,Yonge St at King St West - King Station,43.649249,-79.378022
958,Kodiak Cres at Sheppard Ave West,43.752079,-79.467028
959,Steeles Ave East Loop,43.798341,-79.417889
960,Lake Shore Blvd West at Thirty Seventh St,43.593494,-79.537978
962,Finch Ave West at Elana Dr,43.756605,-79.520828
963,Steeles Ave East at Walkway to Norn Cres,43.832317,-79.270029
964,Warden Ave at Walbon Rd,43.739791,-79.292609
966,Yonge St at Yonge Blvd South Side,43.733994,-79.404613
967,145 Carrier Dr,43.741627,-79.613925
968,The East Mall at Talgarth Rd,43.662652,-79.570684
969,O'Connor Dr at Derwyn Rd,43.696688,-79.334719
970,Woodbine Ave at Queen St East,43.668861,-79.305943
971,Howard Park Ave at Indian Rd,43.650763,-79.454889
972,St Regis Cres North at Bakersfield St West Side,43.757032,-79.481627
975,Oak St at Weston Rd East Side,43.707912,-79.53278
976,Danforth Rd at Magnolia Ave,43.722968,-79.255569
977,Avenue Rd at St Clements Ave,43.710222,-79.41096
978,Runnymede Rd at St John's Rd,43.663697,-79.48124
979,Steeles Ave West at Dufferin St,43.787469,-79.469755
980,Lawrence Ave West at Benton Rd,43.710536,-79.471373
981,Grand Ave at Manitoba St South Side,43.623181,-79.492572
982,Eglinton Ave East at Kennedy Rd,43.732413,-79.267746
983,Dupont St at Perth Ave,43.66531,-79.45294
984,Giltspur Dr at Magellan Dr,43.735386,-79.50836
985,Bellamy Rd North at Brimorton Dr,43.767658,-79.239344
986,McLevin Ave at Pennyhill Dr,43.810574,-79.217599
988,Eglinton Ave West at Jimmy Wisdom Way,43.696414,-79.447135
989,St Clair Ave East at Kennedy Rd,43.716705,-79.261083
990,Sentinel Rd at Murray Ross Pkwy,43.764562,-79.50104
992,Aukland Rd at Bloor St West South Side,43.640146,-79.540452
993,Tournament Dr at Upper Highland Cres West Side,43.750932,-79.399008
996,Martin Grove Rd at Porterfield Rd,43.722298,-79.585192
997,Sheppard Ave East at Barberry Pl,43.767239,-79.385106
998,Atkinson Ave at Rodeo Dr,43.808738,-79.442506
999,Sheppard Ave East at Kennedy Rd,43.783046,-79.288704
1000,Martin Grove Rd at The Westway,43.683182,-79.566907
1001,685 Finch Ave West,43.770935,-79.456814
1002,McCowan Rd at Coleraine Ave,43.838225,-79.276865
1003,Lawrence Ave East at Carnforth Rd,43.741633,-79.31401
1004,Hullmar Dr at Gosford Blvd,43.761854,-79.521309
1005,Opposite 1915 Martin Grove Rd,43.746054,-79.596357
1006,International Blvd at Galaxy Blvd,43.678068,-79.585698
1007,Royalcrest Rd at Martin Grove Rd,43.752146,-79.599639
1009,Broadview Ave at Millbrook Cres,43.672144,-79.355165
1010,Gerrard St East  at Main St,43.683838,-79.300386
1011,Southport St at Windermere Pl,43.638188,-79.472291
1012,Driftwood Ave at Stong Crt,43.762084,-79.51697
1013,Finch Ave East at Kennedy Rd,43.801487,-79.29616
1014,Victoria Park Ave at Danforth Ave,43.691357,-79.288525
1015,Finch Ave West at Oakdale Rd  - Humber Reactivation Care,43.755759,-79.524466
1016,Mt Pleasant Rd at Erskine Ave,43.712508,-79.391602
1017,Steeles Ave East at Laureleaf Rd,43.805432,-79.385852
1018,Bathurst St at Ulster St,43.65973,-79.408924
1019,Yonge St at Queen St East - Queen Station,43.652319,-79.379085
1020,Midland Ave at Aylesworth Ave South Side,43.713481,-79.249277
1021,Overlea Blvd at Thorncliffe Park Dr (East) West Side,43.707457,-79.344198
1022,Birmingham St at Eighth St,43.602865,-79.507664
1023,Avenue Rd at Roselawn Ave,43.70848,-79.410254
1024,Drewry Ave at Lister Dr,43.782779,-79.43732
1025,Kingston Rd at Manderley Dr,43.688668,-79.269367
1026,Woodbine Ave at Kingston Rd,43.674044,-79.30805
1029,Avenue Rd at Fairlawn Ave,43.727986,-79.418035
1030,Glencairn Ave at Englemount Ave,43.710811,-79.435552
1032,Bayview Ave at The Bridle Path,43.738356,-79.382163
1033,Passmore Ave at Middlefield Rd,43.827482,-79.265057
1034,Kennedy Rd at Bellbrook Rd,43.798949,-79.294947
1035,Finch Ave W at Virgilwood Dr West Side - North York General,43.772898,-79.448603
1036,Dufferin St at Glencairn Ave,43.706896,-79.453031
1037,Victoria Park Ave at Valdane Dr,43.718598,-79.299971
1038,Victoria Park Ave at Cassandra Blvd,43.754442,-79.314192
1039,Finch Ave East at Baylawn Dr,43.803284,-79.28868
1040,Chaplin Cres at Eglinton Ave West,43.702794,-79.417758
1041,Jane St at Patika Ave,43.705192,-79.504228
1042,Kingston Rd at Military Trail,43.781393,-79.169994
1044,The East Mall at Gordon Park Dr,43.634103,-79.556423
1045,Danforth Ave at Coxwell Ave,43.683222,-79.323734
1046,Sherbourne St at Bloor St East South Side - Sherbourne Stati,43.672008,-79.376834
1047,Christie St at Barton Ave South Side,43.66632,-79.419594
1048,Opposite 636 Finch Ave East (Plaza),43.787498,-79.380413
1049,Markham Rd at Finch Ave East,43.812817,-79.242767
1050,Yonge St at Empress Ave - North York Centre Station,43.769149,-79.4127
1051,Islington Ave at Ridgevalley Cres North Side,43.67211,-79.535377
1053,Finch Ave East at Baylawn Dr,43.803004,-79.289136
1054,Wilson Ave at Faywood Blvd East Side,43.734763,-79.445833
1058,Cummer Ave at Pineway Blvd,43.79885,-79.375798
1059,Steeles Ave West at Founders Rd East Side - York University,43.779212,-79.503758
1060,Royal York Rd at Lynngrove Ave,43.651466,-79.513239
1061,Finch Ave West at Norfinch Dr  - Humber Reactivation Care,43.756133,-79.524086
1062,Dufferin St at Martin Ross Ave,43.775081,-79.468294
1063,Ridgecrest Rd at Wiltshire Dr,43.89876,-79.303632
1065,Mortimer Ave at Logan Ave,43.684951,-79.351821
1066,3325 Warden Ave,43.814261,-79.324383
1067,King St West at Shaw St,43.641529,-79.414775
1068,Finch Ave West at Martin Grove Rd,43.736947,-79.591362
1069,Lawrence Ave East at Burnview Cres West Side,43.756528,-79.241423
1070,Kingston Rd at Fenwood Heights,43.727269,-79.229715
1071,Ossington Ave at Churchill Ave,43.652123,-79.421898
1072,400 Evans Ave,43.615254,-79.528238
1073,Opposite 150 Culford Rd,43.705192,-79.487147
1074,Birchmount Rd at L'Amoreaux Dr,43.800672,-79.307267
1075,Sheppard Ave West at Arrow Rd,43.735485,-79.529638
1076,195 Rexleigh Dr,43.704609,-79.305535
1077,Bathurst St at Shelborne Ave,43.716134,-79.429129
1078,Progress Ave at Rosebank Dr North Side,43.792409,-79.233987
1079,Weston Rd at Kenhar Dr,43.761598,-79.544474
1080,Pharmacy Ave at Corinthian Blvd (North),43.792891,-79.325151
1081,Jane St at Colbeck St,43.653347,-79.486211
1082,Keele St at Diana Dr,43.740992,-79.485359
1083,Grandravine Dr at Derrydown Rd,43.75293,-79.491796
1084,Lawrence Ave West at Culford Rd East Side,43.706314,-79.487335
1085,Lawson Rd at Wichey Rd,43.789085,-79.143788
1086,The East Mall at Eglinton Ave West,43.671689,-79.571002
1087,Bay St at St Joseph St,43.665791,-79.387868
1088,Birchmount Rd at Highgate Dr,43.826312,-79.317593
1089,Van Horne Ave at Hobart Dr,43.788065,-79.349482
1090,Kennedy Rd at St Clair Ave East,43.716745,-79.261559
1091,Drewry Ave at Lister Dr,43.782537,-79.4377
1092,Midland Ave at Ellesmere Rd,43.767566,-79.270917
1093,426 Ellesmere Rd,43.762102,-79.297487
1094,Martin Grove Rd at Westhumber Blvd,43.72593,-79.586467
1095,Dovercourt Rd at Dupont St,43.669562,-79.432586
1096,Weston Rd at Habitant Dr,43.745851,-79.540889
1097,Eglinton Ave East at Cedar Dr,43.744094,-79.215486
1098,Kingston Rd at Woodbine Ave,43.673673,-79.308088
1099,Steeles Ave West at Northwest Gate,43.777918,-79.510766
1100,2350 Bayview Ave - The Granite Club,43.734133,-79.381593
1102,Steeles Ave East at Silver Star Blvd,43.825065,-79.300444
1103,Northover St at Giltspur Dr,43.738716,-79.500376
1104,McCowan Rd at Heritage Rd,43.869608,-79.284966
1106,Finch Ave East at Wilfred Ave,43.782645,-79.401995
1107,Rossdean Dr at Garyray Dr,43.76913,-79.539739
1108,1315 and 1319 Neilson Rd,43.807848,-79.219558
1109,5600 Finch Ave East,43.813673,-79.240113
1110,Victory Cres at McNaughton Ave,43.708724,-79.644832
1111,Steeles Ave East at Victoria Park Ave,43.815376,-79.341773
1112,Avenue Rd at St Clair Ave West,43.686737,-79.401728
1114,Mortimer Ave at Donlands Ave,43.687734,-79.339921
1115,Royal York Rd at Coney Rd,43.634093,-79.505949
1116,Lawrence Ave East at Tremont Cres (West),43.734868,-79.353681
1117,St Clair Ave West at Mould Ave,43.668304,-79.486857
1118,McCowan Rd at Denison St,43.841354,-79.277741
1119,Runnymede Rd at St Clair Ave West South Side,43.668539,-79.483462
1120,Danforth Ave at Coxwell Ave,43.683471,-79.323473
1122,Strachan Ave at Canniff St,43.641543,-79.411854
1123,Bayview Ave at Hillcrest Ave,43.77233,-79.389207
1124,Midland Ave at Lord Roberts Dr (South) South Side,43.735772,-79.258784
1125,Bloor St East at Jarvis St,43.671706,-79.380383
1126,Keele St at Grandravine Dr,43.752257,-79.488314
1128,Gerrard St East at Beaton Ave,43.676047,-79.317086
1129,Lawrence Ave East at Prudential Dr East Side,43.751064,-79.266658
1130,Martin Grove Rd at Eglinton Ave West,43.674653,-79.563427
1131,Kennedy Rd at Mewburn Ave,43.707574,-79.257757
1132,Lawrence Ave West at Brookview Dr,43.718172,-79.434957
1133,Bloor St West at Brunswick Ave,43.665819,-79.407548
1134,Islington Ave at Titan Rd,43.630726,-79.51757
1135,Yonge St at Church Ave,43.773679,-79.413853
1137,Ellesmere Rd at McCowan Rd,43.77237,-79.251159
1138,Albion Rd at Golfdown Dr West Side,43.72375,-79.548765
1141,Wellesley St West at Bay St,43.664214,-79.387412
1142,Islington Ave at Golfdown Dr,43.720786,-79.557601
1143,Giltspur Dr at Peterdale Rd,43.736269,-79.505942
1144,The Bridle Path at Saintfield Ave,43.729123,-79.360337
1147,Warden Ave at Sherry Rd North Side,43.723671,-79.285797
1149,Spanbridge Rd at Vicora Linkway,43.712357,-79.324724
1150,2793 Victoria Park Ave,43.78242,-79.326261
1151,Wilson Ave at King High Ave,43.735406,-79.442947
1152,Northover St at Sheppard Ave West South Side,43.74084,-79.501268
1153,Sheppard Ave East at Dean Park Rd,43.806137,-79.18052
1154,55 Bridgeland Ave,43.726343,-79.460272
1155,Washburn Way at Sheppard Ave East,43.796306,-79.22768
1156,Mortimer Ave at Linsmore Cres,43.689143,-79.332753
1158,Martin Ross Ave at Brisbane Rd (West),43.773686,-79.476268
1159,Milvan Dr at Millwick Dr (North),43.760715,-79.566035
1161,Bloor St East at Parliament St,43.671775,-79.371544
1162,Yonge St at Queen St West - Queen Station,43.65251,-79.379408
1163,Howard Park Ave at Parkside Dr East Side,43.649054,-79.457419
1164,Lawrence Ave East at Bayview Ave,43.727666,-79.383231
1166,Steeles Ave East at Ashcott St,43.827008,-79.292081
1167,Bathurst St at Reiner Rd,43.752651,-79.437863
1168,Laurentide Dr at Larabee Cres,43.752395,-79.336977
1170,Royal York Rd at Dundas St West,43.657704,-79.515878
1171,Jane St at Steeles Ave West South Side,43.774891,-79.521862
1172,Dundas St West at Old Dundas St West Side,43.661895,-79.507489
1173,Bayview Ave at Soudan Ave,43.708916,-79.376494
1174,Parliament St at Shuter St,43.657021,-79.365124
1175,Queen St West at Shaw St,43.64479,-79.416155
1176,Erindale Ave at Broadview Ave East Side,43.67738,-79.358218
1177,Finch Ave East at Walkway East of Birchmount Rd,43.799572,-79.303073
1178,Ray Ave at Bartonville Ave East,43.689654,-79.493461
1180,Lawrence Ave East at Wanless Cres (East) West Side,43.727816,-79.389722
1181,Dundas St West at Willard Ave East Side,43.66554,-79.488063
1183,Culford Rd at Valencia Cres,43.708164,-79.488549
1184,Burnhamthorpe Rd at Old Burnhamthorpe Rd (West),43.640875,-79.581609
1185,Marlee Ave at Glengrove Ave North Side,43.711157,-79.444575
1186,Martin Grove Rd at Belfield Rd,43.701702,-79.575302
1187,Sheppard Ave East at Malvern St,43.794789,-79.234821
1188,Gerrard St East at Carlaw Ave,43.667717,-79.342605
1189,630 The East Mall,43.656784,-79.566517
1190,Danforth Rd at Birchmount Rd,43.706112,-79.268531
1192,Lansdowne Ave at Whytock Ave,43.653917,-79.441232
1193,Meadowvale Rd at Ellesmere Rd,43.792656,-79.163736
1194,The Donway West at Duncairn Rd North Side,43.739947,-79.346237
1196,Yonge Blvd at Harley Ave,43.738241,-79.41204
1197,Leslie St at Lawrence Ave East North Side,43.735046,-79.355901
1199,4242 Dundas St West - Kingsway Mills Plaza,43.659653,-79.513305
1200,Woodbine Ave at Plains Rd,43.698422,-79.318408
1201,Hilda Ave at Steeles Ave West,43.795595,-79.429004
1202,Grangeway Ave at Progress Ave South Side,43.775976,-79.250532
1203,1148 Bellamy Rd North,43.778161,-79.243197
1205,McNicoll Ave at Brahms Ave,43.799614,-79.360212
1206,Eglinton Ave West at The East Mall,43.672032,-79.571143
1207,Sheppard Ave East at Idagrove Gate,43.807169,-79.175765
1208,Albion Rd at Highway 27,43.744355,-79.607358
1209,Dynamic Dr at Turbina Ave North Side,43.827116,-79.251922
1211,Queen St East at Sumach St,43.656918,-79.358807
1212,Kipling Ave at Mattice Rd,43.647035,-79.53777
1214,Coxwell Ave at O'Connor Dr,43.697645,-79.329298
1215,Yonge St at William Carson Cres,43.747206,-79.407246
1216,Bloor St West at Bedford Rd,43.667897,-79.39756
1217,Wilson Ave at Dufferin St West Side,43.732143,-79.459421
1218,Huntingwood Dr at Belgreen Ave East Side,43.79552,-79.290217
1219,Wright Ave at Jane St West Side,43.700766,-79.503809
1220,Evans Ave at Cremorne Ave,43.620658,-79.501613
1221,Markham Rd at Tuxedo Crt,43.77944,-79.232752
1222,Coxwell Ave at Queen St East,43.666692,-79.316748
1223,Weston Rd at Black Creek Dr North Side,43.683549,-79.481081
1224,The Pond Rd at Ian MacDonald Blvd West Side,43.77063,-79.499806
1225,Cummer Ave at Yonge St East Side,43.787115,-79.416628
1226,Queen St East at Elmer Ave,43.669336,-79.303443
1227,Kipling Ave at North Heights Rd North Side,43.66527,-79.545439
1228,Lawson Rd at Meadowvale Rd West Side,43.785289,-79.161088
1229,Warden Ave at Major Mackenzie Dr East South Side,43.891406,-79.343171
1230,Victoria Park Ave at Amsterdam Ave South Side,43.714867,-79.298659
1231,Island Rd at East Ave,43.797941,-79.139236
1232,Centenary Hospital Loop at Neilson Rd,43.78123,-79.204142
1233,Progress Ave at Opposite Roadway to Centennial College,43.783468,-79.231974
1235,Albion Rd at Highway 27 East Side,43.743938,-79.606313
1236,Spadina Rd at Kilbarry Rd,43.692606,-79.414257
1237,Dundas St West at Prince Edward Dr North,43.660474,-79.510565
1238,Ansford Ave at Faywood Blvd,43.735741,-79.446837
1240,5010 Steeles Ave West,43.759485,-79.593025
1241,Kennedy Rd at Kenmark Blvd,43.729953,-79.26688
1242,Howard Park Ave at Roncesvalles Ave,43.651426,-79.451175
1243,Lake Shore Blvd West at Burlington St,43.617151,-79.487284
1244,Lawrence Ave West at Apex Rd,43.713417,-79.458406
1245,441 Ellesmere Rd,43.761781,-79.297639
1246,Islington Ave at Monogram Pl,43.70478,-79.550106
1248,Sheppard Ave East at Bayview Ave - Bayview Station,43.766885,-79.387704
1249,Caledonia Rd at Bowie Ave,43.695042,-79.462882
1250,Warden Ave at Ellesmere Rd,43.760997,-79.300528
1252,Greenwood Ave at Torbrick Rd South Side,43.675882,-79.330173
1253,Lundy Ave at Warren Cres,43.662607,-79.502697
1254,Steeles Ave West at Jane St West Side,43.775471,-79.522085
1256,145 Dynamic Dr,43.828039,-79.252357
1258,Lawrence Ave West at Brookview Dr,43.717875,-79.43526
1259,Newgale Gate at Finchdene Sq,43.818861,-79.237676
1260,Jane St at Eddystone Ave,43.749223,-79.515798
1261,Caledonia Rd at Norman Ave,43.677844,-79.455867
1262,Sheppard Ave East at Morningside Ave,43.801751,-79.200009
1263,Markham Rd at Sheppard Ave East,43.793604,-79.238418
1264,Finch Ave East at Tiffield Rd,43.811034,-79.252622
1265,Symington Ave at Bloor St West,43.657415,-79.447871
1266,430 Tapscott Rd,43.809065,-79.23499
1267,Ranee Ave at Ameer Ave,43.725147,-79.439662
1268,Shorncliffe Ave at Lockport Ave,43.627616,-79.542736
1269,Birchmount Rd at Sanwood Blvd,43.816133,-79.314333
1271,Ellesmere Rd at Highland Creek Park,43.788976,-79.178809
1272,Old Kingston Rd at Morrish Rd,43.783097,-79.170854
1273,Islington Ave at Judson St,43.613907,-79.508663
1274,Dixon Rd at Celestine Dr,43.69358,-79.562351
1275,Brimley Rd at Britwell Ave,43.756125,-79.256188
1277,Martin Grove Rd at Tollington Rd,43.686679,-79.56878
1278,Lawrence Ave East at Barrymore Rd,43.754454,-79.251333
1279,Bayview Ave at McKee Ave,43.7779,-79.390444
1281,595 Commissioners St,43.655801,-79.327775
1282,Finch Ave East at Trudy Rd East Side,43.790826,-79.36296
1283,Ellis Ave at Lake Shore Blvd West,43.636779,-79.465781
1284,Westlake Ave at Lumsden Ave,43.694512,-79.308371
1285,Victoria Park Ave at McNicoll Ave,43.803897,-79.336067
1286,Millwood Rd at Randolph Rd,43.703118,-79.363458
1287,Dufferin St at Ramsden Rd South Side,43.695717,-79.450479
1288,Christie St at Barton Ave,43.666475,-79.419496
1291,York Mills Rd at Fenn Ave,43.747131,-79.388881
1292,46 Overlea Blvd,43.706973,-79.34627
1293,The East Mall at Rathburn Rd,43.655161,-79.564454
1295,Sheppard Ave East at Progress Ave,43.794491,-79.235159
1296,Dundas St East at Broadview Ave,43.662249,-79.351814
1298,Bay St at College St,43.660921,-79.386005
1299,95 Commander Blvd,43.793527,-79.266658
1300,McCowan Rd at Brimorton Dr,43.765254,-79.248748
1301,The Queensway at Ellis Ave West Side,43.637819,-79.466978
1302,Chaplin Cres at Avenue Rd East Side,43.698503,-79.405551
1303,501 Consumers Rd,43.770613,-79.327515
1304,Dufferin St at Rowan Ave,43.692029,-79.448632
1305,Bathurst St at Caribou Rd,43.71753,-79.429252
1306,Arrow Rd at Deerhide Cres (South),43.747641,-79.530249
1307,Keele St at Donald Ave,43.684989,-79.47293
1308,Attwell Dr at Farnboro Rd,43.691339,-79.587417
1309,Sentinel Rd at Grandravine Dr,43.751718,-79.495975
1310,Brookbanks Dr at Valley Woods Rd,43.752164,-79.331971
1311,Jones Ave at Shudell Ave,43.675036,-79.337976
1312,Martin Grove Rd at Richgrove Dr,43.676926,-79.564426
1314,St Clair Ave East at North Woodrow Blvd,43.715113,-79.266834
1315,Greenwood Ave at Felstead Ave,43.677719,-79.330707
1316,Warden Ave at Ionson Blvd,43.690728,-79.272214
1317,Lawrence Ave East at Midland Ave East Side,43.751579,-79.264207
1318,Markham Rd at Painted Post Dr,43.767395,-79.228128
1319,Warden Ave at Enterprise Blvd,43.848285,-79.331592
1320,Rogers Rd at Oakwood Ave West Side,43.687044,-79.439442
1321,Islington Ave at Bergamot Ave,43.717119,-79.556195
1322,Van Horne Ave at Kingslake Rd,43.786639,-79.345567
1323,2216 Lawrence Ave East,43.748715,-79.279522
1324,Old Weston Rd at Lavender Rd,43.680671,-79.466636
1325,Dufferin St at Brandon Ave,43.670324,-79.439719
1326,Village Gate at Steeles Ave West,43.792558,-79.440731
1327,Avenue Rd at Glengrove Ave West,43.717016,-79.41366
1328,Parkwoods Village Dr at Combermere Dr,43.758032,-79.319424
1329,Danforth Ave at Sibley Ave,43.690091,-79.292815
1330,Steeles Ave East at Pharmacy Ave,43.816625,-79.336828
1331,Lake Shore Blvd West at Louisa St,43.619048,-79.486446
1332,Dufferin St at Liberty St,43.636946,-79.426505
1333,Albion Rd at Todd Brook Dr East Side,43.738097,-79.571253
1334,741 Ellesmere Rd at Mondeo Dr,43.764459,-79.287449
1335,Park Lawn Rd at Lorne Ave,43.630729,-79.490963
1336,St Clair Ave West at Vaughan Rd West Side,43.682656,-79.420844
1337,St Clair Ave West at Vaughan Rd East Side,43.682875,-79.419348
1338,St Clair Ave West at Bathurst St East Side,43.683213,-79.417671
1339,St Clair Ave West at Bathurst St West Side,43.683061,-79.418852
1341,Markham Rd at Bur Oak Ave - Mount Joy GO Station,43.900026,-79.265771
1342,Dupont St at Howland Ave,43.673765,-79.411699
1343,St Clair Ave West at Tweedsmuir Ave,43.684084,-79.413336
1344,St Clair Ave West at Spadina Rd East Side,43.684699,-79.410569
1345,St Clair Ave West at Yonge St West Side,43.688014,-79.394607
1347,York Mills Rd at Laurentide Dr,43.757636,-79.338064
1348,Albion Rd at Bankfield Dr,43.730649,-79.554146
1349,Parkside Dr at Indian Valley Cres South Side,43.650881,-79.458497
1350,Queen St East at Leslie St,43.66333,-79.330109
1351,Victoria Park Ave at Rowena Dr,43.751403,-79.312873
1352,Eglinton Ave East at Sloane Ave,43.726134,-79.313172
1353,The West Mall at Bloor St West,43.63574,-79.562491
1354,Islington Ave at Bering Ave,43.639459,-79.521343
1356,The Bridle Path at Suncrest Dr,43.726432,-79.360313
1357,Eglinton Ave East at Midland Ave,43.734195,-79.259166
1358,Caledonia Rd at Summit Ave,43.686657,-79.459454
1359,Kingston Rd at Blantyre Ave,43.681329,-79.281449
1360,Bathurst St at Antibes Dr,43.781233,-79.445042
1361,Dufferin St at Wilson Ave South Side,43.731126,-79.458778
1362,Jane St at Shoreham Dr,43.76892,-79.520536
1363,3600 Steeles Ave West,43.77211,-79.538315
1364,Yonge St at Broadway Ave,43.709449,-79.39881
1365,Anglesey Blvd at Islington Ave,43.664493,-79.531543
1366,Brimorton Dr at Mid Pines Rd,43.771113,-79.211966
1367,The Queensway at Colborne Lodge Dr East Side,43.639566,-79.458635
1368,Kingston Rd at Blantyre Ave,43.681534,-79.281335
1369,44 Thorncliffe Park Dr,43.702448,-79.342715
1371,Crescent Rd at South Dr (West),43.678533,-79.382497
1374,Spadina Rd at Lonsdale Rd,43.688713,-79.412799
1375,Keele St at Glenlake Ave,43.658146,-79.461353
1377,3689 Weston Rd,43.762893,-79.544763
1378,Cactus Ave at Pleasant Ave,43.789617,-79.433211
1379,College St at Elizabeth St,43.660618,-79.387271
1380,Keele St at Wycombe Rd,43.742981,-79.48611
1382,Dundas St West at Scarlett Rd,43.665631,-79.499107
1383,Bay St at Charles St West,43.668073,-79.388671
1384,Kennedy Rd at Mewburn Ave,43.707785,-79.258005
1385,University Ave at Gerrard St West,43.65763,-79.389768
1386,Whitehorse Rd at Steeprock Dr,43.758263,-79.472177
1387,Carlingview Dr at Fasken Dr South Side,43.691115,-79.597649
1388,Pape Ave at Mortimer Ave,43.685674,-79.347319
1389,244 The West Mall,43.631997,-79.560393
1390,Martin Grove Rd at Longbourne Dr,43.680944,-79.566235
1391,Birchmount Rd at Carncastle Gate,43.777111,-79.296393
1392,Gary Dr at Wendell Ave,43.709789,-79.524233
1393,Dufferin St at Lawrence Ave West,43.714241,-79.454916
1394,Avenue Rd at Edmund Ave,43.682605,-79.399936
1395,Foxwell St at Jane St West Side,43.671537,-79.494259
1396,Dufferin St at Orfus Rd,43.720554,-79.456276
1397,The Westway at Islington Ave,43.688461,-79.543101
1399,Scarlett Rd at Edenbridge Dr North Side,43.681165,-79.508941
1400,Lawrence Ave West at Kimbark Blvd,43.721572,-79.41848
1401,The Queensway at Glendale Ave East Side - St Joseph's Health,43.639168,-79.450773
1402,Yonge St at St Clair Ave West - St Clair Station,43.688281,-79.394275
1403,Kennedy Rd at Craiglee Dr,43.705838,-79.257183
1404,Deauville Lane at St Dennis Dr,43.71805,-79.331096
1405,Caledonia Rd at Bentworth Ave,43.719375,-79.468437
1406,Carlaw Ave at Commissioners St,43.652706,-79.335714
1407,Evans Ave at Horner Ave,43.617136,-79.518641
1408,Moore Ave at Brendan Rd,43.695491,-79.378399
1409,1299 Ellesmere Rd,43.769344,-79.264176
1410,Bloor St West at Shaver Ave South East Side,43.638962,-79.547422
1411,Don Mills Rd at Premier Davis Blvd - Seneca College,43.796264,-79.355054
1414,Belfield Rd at City View Dr East Side,43.699535,-79.585375
1415,Sheppard Ave East at Warden Ave,43.778938,-79.307608
1416,Dufferin St at St Clair Ave West,43.677768,-79.442907
1417,Donlands Ave at O'Connor Dr South Side,43.694244,-79.343044
1418,Greenwood Ave at Gerrard St East,43.671002,-79.328133
1419,Finch Ave East at Walkway to Huntingdale Blvd,43.795052,-79.323292
1420,Islington Ave at Dixon Rd,43.697254,-79.546973
1421,Oak St at Roadway to Piggott Mews,43.708296,-79.530743
1422,Warden Ave at Glen Springs Dr,43.80467,-79.320349
1423,Arleta Ave at Sheppard Ave West North Side,43.74196,-79.501534
1424,Warden Ave at Roper Rd (North Commuter Parking Lot),43.713879,-79.281661
1425,Parkwoods Village Dr at Gailong Crt,43.759388,-79.321096
1426,Jane St at Wilson Ave South Side,43.720429,-79.508641
1428,Hilda Ave at Green Bush Rd,43.794365,-79.428403
1429,Avenue Rd at Cottingham St South Side,43.679979,-79.398865
1430,Opposite 430 Tapscott Rd - Walkway to Tunmead Square,43.80948,-79.23493
1431,King St West at Queen St West,43.638535,-79.445759
1432,St Clair Ave West at Russell Hill Rd East Side,43.685403,-79.407321
1433,Weston Rd at Sheppard Ave West,43.733887,-79.53842
1434,1811 Albion Rd,43.744939,-79.611856
1435,Brentcliffe Rd at Vanderhoof Ave,43.712925,-79.359157
1436,Coxwell Ave at Gerrard St East,43.675096,-79.320091
1437,Lawrence Ave East at Cardinal Pl,43.725917,-79.398686
1439,Evans Ave at Eastwick Rd,43.617617,-79.515524
1440,Yonge St at Crescent Rd - Rosedale Station,43.676823,-79.38938
1441,Gerrard St East at Logan Ave,43.666983,-79.345317
1442,Eglinton Ave East at Falmouth Ave,43.735453,-79.253308
1443,Donlands Ave at O'Connor Dr,43.694547,-79.342941
1444,Yonge St at Rosehill Ave,43.686132,-79.393183
1445,Islington Ave at Summitcrest Dr,43.683125,-79.54029
1446,Lawrence Ave West at Keele St,43.709011,-79.477644
1447,Gerrard St East at St Matthews Rd,43.664927,-79.35489
1448,Victoria Park Ave at Lawrence Ave East,43.741755,-79.309523
1449,Thirtieth St at Horner Ave,43.604096,-79.533531
1450,North Queen St at Atomic Ave,43.622082,-79.542704
1451,Mt Pleasant Rd at Lawrence Ave East,43.726716,-79.396602
1452,King St West at Sudbury St,43.640853,-79.417479
1453,Howard Park Ave at Dundas St West,43.651965,-79.448329
1454,McNicoll Ave at Middlefield Rd,43.820586,-79.260854
1457,Greenwood Ave at Dundas St East,43.667455,-79.326459
1459,Silverdale Cres at York Mills Rd South Side,43.756605,-79.341245
1460,Kennedy Rd at Malta St North Side,43.704334,-79.256416
1461,Steeles Ave West at Weston Rd,43.770086,-79.546903
1462,Opposite 185 Graydon Hall Dr,43.764325,-79.342106
1463,626 Dixon Rd,43.690925,-79.574582
1464,Bloor St West at Manning Ave,43.663979,-79.416138
1465,Finchdene Sq at Pullman Crt,43.820512,-79.23776
1466,Parliament St at Gerrard St East,43.662405,-79.367314
1467,4359 Jane St,43.764049,-79.519111
1468,Dundas St West at McCaul St,43.654219,-79.391552
1469,The Queensway at Brawley Ave,43.622221,-79.521619
1471,Humberwood Blvd at Kingsplate Cres,43.723814,-79.616068
1472,Nugget Ave at Transfer Pl,43.798094,-79.244177
1474,Oakwood Ave at St Clair Ave West,43.679864,-79.435844
1475,Prince Edward Dr South at Glenroy Ave,43.643687,-79.503444
1477,Albion Rd at Kipling Ave,43.739768,-79.580072
1478,Mortimer Ave at Knight St,43.691012,-79.32416
1479,Milner Ave at Markham Rd,43.789771,-79.236769
1481,Dupont St at Shaw St,43.670664,-79.426478
1482,Dufferin St at Dolomite Dr,43.781047,-79.46999
1483,Kingston Rd at Elmer Ave,43.67582,-79.305884
1484,3447 Kennedy Rd,43.821059,-79.305678
1485,Lawrence Ave West at Lorindale Ave,43.724924,-79.403462
1486,Pharmacy Ave at Dolphin Dr,43.700196,-79.286863
1487,Birchmount Rd at Crouse Rd,43.740666,-79.281944
1488,Jane St at Woolner Ave,43.671522,-79.493576
1489,Washburn Way at Nahanni Ter South Side,43.802358,-79.224717
1490,Danforth Rd at Tansley Ave South Side,43.746116,-79.244702
1491,Victoria Park Ave at Altair Ave North Side,43.78448,-79.327193
1492,Evans Ave at The East Mall,43.611724,-79.543977
1493,Queen St East at Church St,43.653269,-79.37552
1494,Birchmount Rd at Riseborough Circt (North),43.826823,-79.317703
1495,Keele St at Dundas St West South Side,43.665088,-79.464501
1496,Weston Rd at Lambton Ave,43.684215,-79.483795
1497,Weston Rd at York Ave,43.68587,-79.487531
1498,Pritchard Ave at Jane St,43.669628,-79.492607
1500,Wynford Dr at Concorde Pl West Side,43.727267,-79.328478
1502,Kingston Rd at Scarborough Rd,43.680614,-79.287061
1503,Hambly Ave at Williamson Rd,43.673686,-79.29808
1504,Coxwell Ave at Sammon Ave,43.688879,-79.325993
1505,Coxwell Ave at Springdale Blvd,43.687416,-79.325385
1506,Kennedy Rd at Danforth Rd,43.714994,-79.261065
1507,Maniza Rd at Gilley Rd,43.735734,-79.464573
1508,Dundas St East at Jarvis St,43.657162,-79.374377
1509,Yonge St at Briar Hill Ave,43.713729,-79.399948
1510,Markham Rd at Blakemanor Blvd,43.750967,-79.22208
1512,Grandravine Dr at Derrydown Rd,43.753035,-79.491497
1513,Lawrence Ave East at Underwriters Rd,43.746625,-79.288269
1514,Commissioners St at Logan Ave,43.65142,-79.337972
1515,Berry Rd at Minstrel Dr,43.635106,-79.497939
1516,Leslie St at Dexter Blvd South Side,43.799373,-79.370328
1517,Willowdale Ave at Otonabee Ave,43.795867,-79.412905
1518,100 Bridgeland Ave,43.726123,-79.461155
1519,Queen St West at Ossington Ave,43.644283,-79.41869
1520,McCowan Rd at Steeles Ave East,43.831169,-79.275424
1521,Waterbury Dr at Clarion Rd,43.685022,-79.571152
1522,Rathburn Rd at Islington Ave,43.662151,-79.53199
1523,William R Allen Rd at Overbrook Pl,43.760867,-79.464927
1525,Caledonia Rd at Glengrove Ave,43.706301,-79.465166
1526,Dufferin St at College St,43.652658,-79.432661
1527,Islington Ave at Judson St North Side,43.614039,-79.508392
1528,Lansdowne Ave at Dupont St,43.666612,-79.446297
1530,Keele St at Diana Dr South Side,43.740824,-79.48559
1531,Opposite 625 Finch Ave West,43.771704,-79.454303
1532,Eglinton Ave West at Bemersyde Dr,43.678401,-79.545008
1533,Bloor St East at Jarvis St,43.671464,-79.38077
1534,McCowan Rd at Southdale Dr South Side,43.86503,-79.284087
1535,Queen St West at Ossington Ave,43.64406,-79.418976
1536,Lloyd Manor Rd at Beaverbrook Ave,43.661742,-79.547757
1537,Cosburn Ave at Linsmore Cres,43.69285,-79.334238
1538,Oak St at Weston Rd,43.708091,-79.532566
1539,Opposite 215 Carlingview Dr,43.683178,-79.594033
1540,Mill Rd at Toledo Rd,43.634066,-79.57709
1541,4610 Dufferin St,43.77216,-79.467924
1542,Islington Ave at Fenley Dr South Side,43.692803,-79.544904
1544,Markham Rd at Milner Ave,43.789364,-79.236737
1545,St Regis Cres North at Ceramic Rd East Side,43.756479,-79.483595
1546,3400 Keele St,43.747616,-79.487209
1547,Foxwell St at Duern St,43.670893,-79.495862
1548,Dufferin St at Playfair Ave,43.710983,-79.454179
1549,Brimley Rd at Lombardy Cres,43.731931,-79.246177
1551,Finch Ave East at Opposite Walkway East of Birchmount Rd,43.799792,-79.303031
1552,Christie St at Yarmouth Rd North Side,43.670279,-79.420936
1553,Steeles Ave West at Islington Ave,43.764537,-79.574602
1554,Belfield Rd at McCulloch Ave West Side,43.702639,-79.573099
1555,Brown's Line at Jellicoe Ave South Side,43.596288,-79.542878
1557,Warden Ave at Bowater Dr North Side,43.781056,-79.308879
1558,Sheppard Ave East at Victoria Park Ave West Side,43.775213,-79.323709
1560,Dupont St at Shaw St,43.670463,-79.426696
1561,Parkside Dr at Geoffrey St,43.646725,-79.457071
1562,Dufferin St at Finch Ave West South Side,43.76823,-79.466957
1563,Yonge St at Charles St East,43.668556,-79.385974
1564,Steeles Ave East at Bestview Dr,43.80629,-79.383217
1565,Eglinton Ave West at Municipal Dr - York Civic Centre,43.689751,-79.477026
1566,Lawrence Ave East at Kennedy Rd East Side,43.74948,-79.274276
1567,Jane St at Eglinton Ave West South Side,43.68404,-79.498872
1568,Pharmacy Ave at Steeles Ave East South Side,43.81629,-79.336392
1569,Howard Park Ave at Roncesvalles Ave,43.651592,-79.45081
1570,Caledonia Rd at Leswyn Rd,43.7159,-79.467783
1573,Warden Ave at Frey Cres,43.74345,-79.293834
1574,227 Bridgeland Ave,43.724537,-79.467678
1575,Waterbury Dr at Redgrave Dr North Side,43.683214,-79.569859
1576,Sheppard Ave East at Walkway to Murison Blvd,43.801068,-79.203406
1578,Keele St at Calvington Dr South Side,43.733145,-79.483707
1579,Cummer Ave at Conacher Dr,43.791392,-79.397163
1580,Queen St East at Kingston Rd,43.667398,-79.312136
1581,Warden Ave at Bertrand Ave,43.732909,-79.28951
1582,1415 Morningside Ave,43.810785,-79.203418
1583,Bloor St West at Windermere Ave,43.65008,-79.480567
1584,150 Murison Blvd,43.800154,-79.204657
1585,Lake Shore Blvd West at Mimico Ave,43.613855,-79.489387
1586,Brimley Rd at Brimley Woods Park,43.80931,-79.278836
1587,Bloor St West at Shaw St,43.662583,-79.423134
1588,Leslie St at York Mills Rd,43.75271,-79.359741
1589,Finch Ave East at Pineway Blvd,43.789319,-79.373112
1591,5373 Finch Ave East,43.811225,-79.250996
1592,Ellesmere Rd at Dewey Dr,43.76023,-79.304551
1593,Warden Ave at Canadian Rd,43.758595,-79.300254
1594,Leslie St at Steeles Ave East,43.808146,-79.372255
1595,Bellamy Rd North at Nelson St,43.746466,-79.230879
1596,Annette St at High Park Ave,43.662799,-79.46939
1598,Victoria Park Ave at Dawes Rd South Side,43.70621,-79.29498
1599,Post Rd at Bayview Ave,43.736626,-79.380601
1600,Cosburn Ave at Westlake Cres West Side,43.697384,-79.310489
1601,Royal York Rd at Royaleigh Ave,43.698515,-79.533557
1602,Queen's Plate Dr (West) at Rexdale Blvd North Side,43.720365,-79.602888
1603,Dufferin St at Briar Hill Ave,43.702243,-79.451968
1604,240 Rexdale Blvd,43.713177,-79.577655
1605,Calvington Dr at Roding St,43.731336,-79.49321
1607,Finch Ave East at Don Mills Rd East Side,43.792619,-79.354183
1608,Sheppard Ave East at Neilson Rd,43.797935,-79.21787
1609,3381 Steeles Ave East,43.81478,-79.344182
1610,Woodbine Ave at Barker Ave,43.694244,-79.316363
1611,Crescent Rd at Mt Pleasant Rd East Side,43.678128,-79.380209
1612,Rathburn Rd at Edenwood Dr,43.658373,-79.549223
1613,Sweeney Dr at Sloane Ave West Side,43.735703,-79.312716
1614,Oakwood Ave at Earlsdale Ave,43.685104,-79.438004
1616,Steeles Ave West at Hidden Trail,43.788495,-79.463345
1617,Woodbine Ave at Barker Ave South Side,43.693898,-79.316444
1619,Brown's Line at Coules Crt (North) South Side,43.608085,-79.548111
1620,195 Bermondsey Rd,43.723838,-79.314381
1621,Scarborough Golf Club Rd at Mossbank Dr,43.76743,-79.217576
1622,11 Thorncliffe Park Dr,43.704287,-79.348715
1623,Dawes Rd at Gower St,43.702372,-79.297052
1624,College St at Spadina Ave,43.658013,-79.399632
1625,Crescent Rd at Lamport Ave,43.677942,-79.378216
1626,Brimley Rd at Port Royal Trail (South),43.821421,-79.284532
1627,Kingston Rd at Sharpe St,43.706529,-79.25137
1628,Steeles Ave West at Torresdale Ave,43.790688,-79.453166
1629,Bathurst St at Vesta Dr,43.703148,-79.425728
1630,Oakdale Rd at Finch Ave West South Side - Humber Reactivatio,43.755152,-79.524025
1632,Ellesmere Rd at Markham Rd,43.776245,-79.232002
1633,75 Thorncliffe Park Dr,43.70495,-79.341952
1634,Spadina Ave at Queen St West South Side,43.64822,-79.396223
1635,Jane St at Pritchard Ave,43.669436,-79.492679
1636,Islington Ave at Vanhill Ave,43.75723,-79.569647
1637,Bannatyne Dr at Beaverhall Dr,43.758947,-79.365919
1638,Yonge St at Chatsworth Dr,43.722068,-79.401694
1639,Glenorchy Rd at Royal Oak Dr South Side,43.727035,-79.364629
1640,Kennedy Rd at Huntingwood Dr,43.795259,-79.293699
1642,Lawrence Ave East at Fortune Gate,43.76116,-79.219676
1643,Opposite 1111 Finch Ave West,43.767126,-79.475169
1644,Steeles Ave West at Gaudaur Rd East Side,43.767387,-79.56018
1645,6030 Bathurst St,43.787654,-79.446634
1646,Lawrence Ave East at Townley Ave,43.742834,-79.30707
1647,Finch Ave West at Driftwood Ave,43.758187,-79.513256
1648,Glenorchy Rd at Royal Oak Dr,43.726897,-79.364252
1649,Finch Ave East at Ravel Rd,43.790454,-79.365186
1650,Finch Ave East at Leslie St East Side,43.789921,-79.367098
1651,Coxwell Ave at Cosburn Ave,43.69424,-79.328168
1652,Lake Shore Blvd West at Thirteenth St,43.599444,-79.511706
1654,Coxwell Ave at Barker Ave North Side,43.692127,-79.327069
1655,Sheppard Ave East at Rouge River Dr,43.804795,-79.186784
1656,Union Station Streetcar Platform,43.645641,-79.379223
1657,The Esplanade at Lower Sherbourne St,43.648898,-79.367679
1658,Sherbourne St at Bloor St East - Sherbourne Station,43.672155,-79.376648
1659,Sheppard Ave East at Meadowvale Rd West Side,43.808291,-79.171598
1660,Progress Ave at Milner Ave,43.789947,-79.23395
1661,Rexdale Blvd at Kipling Ave,43.71191,-79.566462
1662,Bathurst St at Wilson Ave South Side,43.736782,-79.43401
1663,The East Mall at Eglinton Ave West South Side,43.671379,-79.57119
1664,Ridgecrest Rd at Major Mackenzie Dr East South Side,43.900348,-79.304527
1665,Danforth Rd at Warden Ave,43.696759,-79.274854
1667,Markham Rd at 14Th Ave,43.856591,-79.255581
1668,Warden Ave at Cataraqui Cres,43.702311,-79.276824
1669,Spadina Ave at Bremner Blvd North Side,43.641232,-79.393194
1670,Burnhamthorpe Rd at Renforth Dr,43.643187,-79.572682
1671,Ellesmere Rd at Calthorpe Ave,43.788307,-79.180898
1672,Lawrence Ave East at Greencedar Circt East Side,43.758141,-79.232683
1673,Eglinton Ave East at Bayview Ave,43.710886,-79.377428
1675,Cosburn Ave at Pape Ave,43.689304,-79.34897
1676,Flemington Rd at Stockton Rd,43.72094,-79.449408
1677,Alness St at Flint Rd,43.781977,-79.478384
1678,Pharmacy Ave at Glendinning Ave,43.810854,-79.333693
1679,Queen St West at Dufferin St,43.642115,-79.428787
1680,Finch Ave East at Baldoon Rd,43.815123,-79.232554
1681,328 The West Mall,43.637279,-79.563759
1683,Markham Rd at Steeles Ave East,43.836408,-79.250894
1684,Yonge St at Alcorn Ave - Summerhill Station,43.682197,-79.391779
1685,Markham Rd at Progress Ave South Side,43.78118,-79.233832
1686,Brimley Rd at Largo Lane South Side,43.747098,-79.252804
1687,Birchmount Rd at Danforth Rd,43.706853,-79.267987
1688,Dovercourt Rd at Shanly St,43.664221,-79.430371
1690,Middlefield Rd at Orator Gate North Side,43.808245,-79.256455
1691,Leslie St at Eastern Ave,43.661387,-79.32928
1692,Jane St at Maple Leaf Dr,43.709123,-79.505308
1693,Danforth Rd at Hollyhedge Dr South,43.75106,-79.244335
1694,Midland Ave at Wolfe Ave,43.727667,-79.255306
1695,Driftwood Ave at Wilmont Dr,43.759758,-79.515958
1696,Opposite 209 Carrier Dr,43.747076,-79.614869
1698,Burnhamthorpe Rd at Old Burnhamthorpe Rd (West),43.640511,-79.582059
1699,Lawrence Ave West at Elm Rd West Side,43.723051,-79.412392
1700,Ninth St at Birmingham St,43.602332,-79.508392
1701,Victoria Park Ave at Eglinton Ave East,43.724882,-79.302913
1702,Warden Ave at Highway 7,43.855913,-79.334113
1703,Kipling Ave at Henley Cres,43.730588,-79.575998
1704,Kipling Ave at Torlake Cres (South),43.611649,-79.522735
1706,Warden Ave at Masseyfield Gate,43.823658,-79.325363
1707,Victoria Park Ave at Greylawn Cres (South),43.748458,-79.311836
1708,Davenport Rd at Old Weston Rd,43.671081,-79.462147
1709,Bushby Dr at McCowan Rd - McCowan Rt Station,43.774745,-79.251924
1710,Midland Ave at Kilcullen Castle Gate North Side,43.809931,-79.289989
1711,Ellesmere Rd at Victoria Park Ave East Side,43.757877,-79.314607
1713,Victoria Park Ave at Pawnee Ave,43.798178,-79.333828
1714,Arrow Rd at Lido Rd,43.741466,-79.530633
1715,Wellesley St West at Parliament Building,43.663208,-79.391858
1716,1530 Albion Rd - Albion Centre,43.740641,-79.585511
1718,Kingston Rd at Sandown Ave,43.708964,-79.249854
1719,Crow Trail at Crittenden Sq,43.812209,-79.233305
1720,Kingston Rd at Waverley Rd,43.676823,-79.304185
1721,Queen St East at Jarvis St,43.653797,-79.373076
1722,Passmore Ave at Silver Star Blvd,43.820112,-79.297805
1723,Weston Rd at Bushey Ave,43.683845,-79.483343
1724,Laurentide Dr at Three Valleys Dr,43.751768,-79.336782
1725,Ellis Ave at Lake Shore Blvd West North Side,43.636808,-79.465564
1726,Sherbourne St at Carlton St,43.66305,-79.372904
1727,Woodbine Ave at Cosburn Ave,43.696303,-79.31725
1729,Annette St at Willard Ave,43.659022,-79.485011
1730,Sherbourne St at Shuter St,43.656015,-79.369955
1732,Weston Rd at Walsh Ave,43.716396,-79.537036
1734,Pharmacy Ave at Innismore Cres,43.736208,-79.301844
1735,Antibes Dr at Bathurst St,43.780933,-79.445119
1736,Lake Shore Blvd West at Twenty Sixth St,43.596668,-79.524268
1737,Gerrard St East at De Grassi St,43.666207,-79.348755
1738,College St at Dovercourt Rd,43.653509,-79.426497
1740,Stephen Dr at Cloverhill Rd North Side,43.635359,-79.48627
1741,Yonge St at Wellington St West,43.648025,-79.377521
1742,Lawrence Ave West at Lorindale Ave East Side,43.724699,-79.403671
1743,Ellesmere Rd at Conlins Rd,43.788024,-79.18295
1744,Lawrence Ave West at Avenue Rd,43.722424,-79.41525
1745,Humber Blvd at Weston Rd,43.683149,-79.480157
1746,Markham Rd at McNicoll Ave,43.823823,-79.247559
1747,Bellamy Rd North at Ellesmere Rd,43.774032,-79.241521
1748,Runnymede Rd at Annette St,43.66018,-79.480129
1749,1183 Finch Ave West,43.765108,-79.483034
1750,Christie St at Follis Ave North Side,43.668608,-79.420306
1752,Queen St West at Dovercourt Rd,43.643567,-79.422228
1753,The East Mall at Talgarth Rd,43.662526,-79.570449
1755,Dundas St West at Pacific Ave,43.665505,-79.46845
1757,625 Finch Ave West,43.771463,-79.454512
1758,St Phillips Rd at Riverview Heights North Side,43.703316,-79.531666
1759,Islington Ave at Barkwin Dr,43.738105,-79.565505
1761,Townsley Loop at Tonwsley St,43.67404,-79.463577
1762,Jane St at San Romanoway North Side,43.759351,-79.518034
1763,Willowdale Ave at Wedgewood Dr,43.790112,-79.410605
1764,Steeles Ave East at Kennedy Rd,43.823486,-79.307333
1765,Church St at Elm St,43.706758,-79.516166
1766,Cosburn Ave at Greenwood Ave,43.691918,-79.338016
1768,Oakwood Ave at Rogers Rd,43.687221,-79.438826
1769,Eglinton Ave West at Walkway to Rangoon Rd,43.670474,-79.577739
1770,Central Park Rdwy at Islington Ave,43.648248,-79.525282
1771,Walsh Ave at Wilson Ave,43.715641,-79.532544
1772,St Clair Ave East at Herron Ave East Side,43.710974,-79.285543
1773,Bellamy Rd North at Nelson St South Side,43.746267,-79.2311
1775,Scarlett Rd at Delemere Ave,43.6703,-79.502543
1776,Danforth Rd at Gordonridge Pl East Side,43.727826,-79.252323
1777,Lawrence Ave West at Olympia Dr East Side,43.705431,-79.491251
1778,Broadview Ave at Browning Ave,43.680882,-79.357665
1779,3395 Weston Rd,43.747195,-79.541201
1780,Bloor St West at Symington Ave,43.657389,-79.447578
1781,Lake Shore Blvd West at Colborne Lodge Dr,43.637568,-79.459315
1782,Milner Ave at Burrows Hall Blvd,43.794705,-79.219718
1783,Wilson Ave at William Cragg Dr,43.722389,-79.500473
1784,Steeles Ave West at Klondike Dr,43.768972,-79.552407
1785,Crow Trail at Baldoon Rd,43.813203,-79.232078
1786,McCowan Rd at Walkway to Historic Ter,43.820193,-79.272839
1787,Sheppard Ave East at Breckon Gate,43.80027,-79.20723
1788,York Mills Rd at Birchwood Ave,43.746313,-79.392079
1790,Dupont St at Bathurst St,43.673032,-79.414476
1793,Dundas St West at Jane St,43.665598,-79.491412
1794,Lake Shore Blvd West at Kipling Ave,43.59833,-79.516749
1795,Roncesvalles Ave at Howard Park Ave,43.651156,-79.450841
1796,Pharmacy Ave at Teesdale Place,43.697134,-79.285559
1797,Mt Pleasant Rd at Belsize Dr,43.702552,-79.387956
1798,Eglinton Ave West at Duplex Ave,43.706175,-79.400656
1799,Kipling Ave at Beaconhill Rd,43.753672,-79.587255
1800,Park Lawn Rd at Gardiner Expressway (Wb On Ramp),43.626981,-79.487428
1801,Weston Rd at Clouston Ave,43.694911,-79.506782
1802,Ossington Ave at Queen St West,43.644501,-79.419048
1803,McCowan Rd at Sheppard Ave East,43.789465,-79.258561
1804,Van Horne Ave at Bickerton Cres,43.788106,-79.334411
1805,Kingston Rd at Neilson Ave West Side,43.7234,-79.23469
1808,Lawrence Ave East at McCowan Rd Westside Scarborough General,43.755437,-79.246651
1809,The West Mall at The Queensway,43.611799,-79.562012
1810,Kipling Ave at Tyre Ave,43.645111,-79.53695
1812,Midland Ave at Rural Ave North Side,43.787473,-79.279241
1813,24 Davean Dr,43.762073,-79.36752
1814,The Donway East at Greenland Rd - Donway Place,43.734213,-79.340141
1815,Caledonia Rd at Castlefield Ave,43.698304,-79.463329
1816,Thorncliffe Park Dr (East) at Overlea Blvd,43.706926,-79.343188
1818,Faywood Blvd at Sheppard Ave West,43.752486,-79.451677
1819,555 Sheppard Ave West,43.756023,-79.435093
1820,Washburn Way at Berner Trail,43.800727,-79.226279
1821,Opposite 2036 Pharmacy Ave,43.779418,-79.319082
1822,Sloane Ave at Elvaston Dr North Side,43.730221,-79.309635
1823,8601 Warden Ave,43.857684,-79.334237
1824,McCowan Rd at Milner Ave North Side,43.785961,-79.256495
1825,Midland Ave at Verdun Ave,43.728984,-79.255857
1826,Bayview Ave at Arjay Cres,43.740168,-79.382719
1827,Tapscott Rd at McNicoll Ave West Side,43.825661,-79.244275
1828,Lawrence Ave West at Welland Rd,43.720066,-79.4263
1830,The Queensway at Stephen Dr,43.630183,-79.484391
1831,Brenyon Way at Foregate Ave,43.80183,-79.207533
1832,Mt Pleasant Rd at Lawrence Ave East North Side,43.726749,-79.39643
1833,2111 Lake Shore Blvd West,43.629066,-79.478151
1834,Woodbine Ave at Cassels Ave South Side,43.678652,-79.309964
1835,Clayson Rd at Bartor Rd,43.728609,-79.525817
1837,Dundas St West at Ossington Ave,43.64943,-79.420489
1838,419 Midland Ave North Side,43.712291,-79.248584
1839,Angus Glen Community Centre Loop at Major Mackenzie Dr East,43.894614,-79.337402
1841,Ferris Rd at Ferris Cres,43.702995,-79.303436
1842,Danforth Rd at Midland Ave East Side,43.725151,-79.253659
1843,Elmhurst Dr at Hinton Rd,43.727442,-79.566076
1845,Yonge St at Mill St,43.739952,-79.405683
1847,Keele St at Murray Ross Pkwy,43.767461,-79.492384
1848,Burnhamthorpe Rd at Burnhamthorpe Cres,43.649493,-79.530732
1849,Kingston Rd at Main St,43.679023,-79.297762
1850,Finchdene Sq (East) at Finchdene Sq (South),43.817144,-79.23213
1851,Eglinton Ave West at Widdicombe Hill Blvd West Side,43.675664,-79.558038
1853,Kingston Rd at Ridgemoor Ave,43.706146,-79.251174
1854,Birchmount Rd at Chelwood Rd,43.725137,-79.275843
1855,89 Windermere Ave,43.639917,-79.472622
1856,Burnhamthorpe Rd at Mulgrove Dr,43.644287,-79.568748
1857,Cummer Ave at Maxome Ave,43.790352,-79.401825
1858,Keele St at Hillsview Ave,43.660394,-79.462489
1860,Kennedy Rd at Village Green Sq North Side,43.777591,-79.285448
1861,Lake Shore Blvd West at Park Lawn Rd,43.62278,-79.481308
1863,191 Nugget Ave,43.794928,-79.253156
1864,Kingston Rd at Kildonan Dr,43.689961,-79.267336
1865,Dawes Rd at Brenton St,43.701231,-79.296853
1866,Queen St West at Roncesvalles Ave,43.638864,-79.445773
1867,Oakwood Ave at Jesmond Ave,43.689468,-79.439406
1868,Dundas St West at Royalavon Cres East Side,43.645722,-79.531352
1869,1200 Huntingwood Dr,43.798207,-79.277466
1870,Ellesmere Rd at Muirbank Blvd,43.793732,-79.157941
1871,Bathurst St at Lonsdale Rd,43.68686,-79.419702
1872,Ceramic Rd at Ashwarren Rd,43.757132,-79.484364
1873,Pharmacy Ave at Sheppard Ave East North Side,43.777067,-79.317954
1875,Davenport Rd at Dufferin St,43.673086,-79.440784
1876,Signet Dr at Garyray Dr,43.768228,-79.542067
1877,McCowan Rd at Horfield Ave,43.728368,-79.233673
1878,Bloor St West at Tremont Rd East Side,43.637886,-79.55211
1879,Brimley Rd at Barkdene Hills,43.71542,-79.239285
1880,Cactus Ave at Connaught Ave,43.786247,-79.432353
1881,Weston Rd at Coulter Ave North Side,43.704727,-79.528464
1883,Chaplin Cres at Duncannon Dr East Side,43.700106,-79.410209
1884,Military Trail at Conlins Rd North Side,43.783779,-79.182208
1885,Don Mills Rd at Mallard Rd,43.74829,-79.346563
1886,Danforth Rd at Mack Ave,43.700102,-79.272633
1887,Sentinel Rd at Hucknall Rd (North),43.757219,-79.499104
1890,Danforth Ave at Monarch Park Ave,43.68248,-79.327268
1891,Middlefield Rd at Finch Ave East,43.810072,-79.25795
1892,Oriole Pkwy at Eglinton Ave West South Side,43.704648,-79.406075
1893,Scarlett Rd at Edenbridge Dr South Side,43.680395,-79.508761
1894,Sheppard Ave East at Burbank Dr - Bessarion Station,43.769432,-79.375993
1895,Lawrence Ave East at Susan St,43.763163,-79.209074
1896,350 Morningside Ave - West Hill Collegiate,43.776049,-79.189427
1897,Weston Rd at Bradmore Ave,43.723203,-79.537139
1898,Marlee Ave at Livingstone Ave,43.698896,-79.439797
1899,Weston Rd at Toryork Dr,43.753169,-79.542526
1900,Parliament St at Oak St,43.660599,-79.366381
1901,West Service Rd at St Albans Rd,43.639282,-79.534872
1902,Danforth Ave at Warden Ave,43.694206,-79.273978
1903,Sheppard Ave West at Bakersfield St Westside - Downsview Par,43.754319,-79.480593
1904,McCowan Rd at Ellesmere Rd,43.771981,-79.251352
1905,Midland Ave at Midland Station,43.770434,-79.272115
1906,5 Sheffield St,43.703658,-79.469982
1907,4770 Sheppard Ave East,43.790724,-79.25407
1908,Leslie St at Lawrence Ave East South Side,43.734157,-79.356045
1909,Pharmacy Ave at Craigton Dr,43.727126,-79.29791
1910,Lawrence Ave West at Ralph St West Side,43.701059,-79.512602
1912,Wilson Ave at Epic Lane Rd,43.72139,-79.506142
1913,Wilson Ave at Highview Ave East Side,43.723322,-79.496337
1914,Skyway Ave at Dixon Rd,43.687681,-79.586549
1915,Gerrard St East at Scarborough Rd,43.68611,-79.28993
1916,Oakdale Rd at Eddystone Ave,43.74681,-79.526502
1917,Huntingwood Dr at Warden Ave East Side,43.7856,-79.310121
1918,Kipling Ave at Holywell Dr,43.688235,-79.555712
1920,Cosburn Ave at Cedarvale Ave,43.696958,-79.315328
1921,College St at Crawford St,43.655048,-79.419148
1922,Warden Ave at Sheppard Ave East,43.778574,-79.307628
1923,Dufferin St at Dupont St South Side,43.668082,-79.43895
1924,John Garland Blvd at Martin Grove Rd West Side,43.732009,-79.589827
1925,Carlaw Ave at Lake Shore Blvd East South Side,43.654374,-79.337065
1927,Steeles Ave East at Redlea Ave,43.823929,-79.30533
1928,McNicoll Ave at Dynamic Dr East Side,43.823316,-79.250753
1929,Ellesmere Rd at Principal Rd East Side,43.762583,-79.294268
1930,Cordova Ave at Dundas St West South Side,43.648526,-79.528396
1931,Park Lane Cir at Post Rd South Side,43.736687,-79.378055
1932,Brimley Rd at Danforth Rd,43.735116,-79.247234
1933,Dufferin St at Rowan Ave,43.692263,-79.448914
1934,Marlee Ave at Whitmore Ave,43.700395,-79.440405
1935,Westhumber Blvd at Esther Lorrie Dr West Side,43.727324,-79.577601
1936,Sheppard Ave East at Grand Marshall Dr,43.802911,-79.195105
1937,Belfield Rd at Iron St,43.700797,-79.580983
1938,Bayview Ave at Bayview Ridge Cres,43.742341,-79.383159
1939,Evans Ave at Horner Ave,43.616805,-79.519106
1940,South Kingsway at Ormskirk Ave,43.638666,-79.476559
1941,Tycos Dr at Caledonia Rd,43.703313,-79.464281
1942,Jane St at Lawrence Ave West,43.703114,-79.503968
1943,Lawrence Ave West at De Marco Blvd West Side,43.705831,-79.490629
1945,Opposite 4600 Bathurst St,43.762333,-79.439959
1946,220 Toryork Dr,43.761355,-79.561117
1947,Spadina Rd at St Clair Ave West,43.684781,-79.411333
1948,Eglinton Ave East at McCowan Rd,43.738664,-79.238637
1950,Rangoon Rd at Hagersville Crt North Side,43.664001,-79.577509
1951,Midland Ave at Prudential Dr,43.749747,-79.264703
1952,Eglinton Ave West at Heddington Ave,43.703573,-79.413713
1953,Warden Ave at Finch Ave East,43.796614,-79.315507
1954,Lawrence Ave East at The Donway East,43.737567,-79.341124
1955,Runnymede Rd at Dundas St West,43.665365,-79.48196
1957,Dawes Rd at Crescent Town Rd North Side,43.696877,-79.297108
1958,Sewells Rd at McLevin Ave South Side,43.810006,-79.214057
1959,Dundas St West at Lisgar St,43.649434,-79.426882
1960,Fenelon Dr at Graydon Hall Dr South Side,43.763361,-79.33904
1961,Jane St at Eddystone Ave,43.749031,-79.515444
1962,Main St Markham North at Thomson Crt,43.874837,-79.259936
1963,York Mills Rd at York Ridge Rd,43.74447,-79.401416
1964,Greenwood Ave at Ivy Ave,43.673526,-79.329182
1965,Weston Rd at Gunns Rd,43.67581,-79.47009
1966,Opposite 230 The Donway West,43.738748,-79.346774
1967,47 Orfus Rd,43.719368,-79.460466
1968,Brenyon Way at Sewells Rd,43.807613,-79.21537
1969,Foxwell St at Bruton Rd,43.670129,-79.498562
1970,247 The West Mall,43.632068,-79.560219
1972,Rathburn Rd at Kipling Ave,43.659984,-79.543032
1974,Thistle Down Blvd at Barkwin Dr East Side,43.737229,-79.55876
1976,Yonge St at North York Blvd,43.766911,-79.412451
1979,Corporate Dr at Progress Ave North Side,43.780553,-79.243864
1981,Anglesey Blvd at Wimbleton Rd,43.66478,-79.528983
1982,Sheppard Ave East at Settlers Rd,43.774535,-79.326911
1983,Dundas St West at Old Oak Dr East Side,43.657008,-79.519699
1984,Warden Ave at Bowater Dr,43.781022,-79.309184
1985,Bloor St West at Christie St,43.663559,-79.418706
1986,Eglinton Ave East at Danforth Rd,43.736844,-79.246727
1987,Scarlett Rd at Bernice Cres,43.667169,-79.499833
1989,Dufferin St at King St West,43.63907,-79.427505
1990,Sheppard Ave West at Don River Blvd,43.7565,-79.432941
1991,Queen St West at Brock Ave,43.641387,-79.432411
1992,Victoria Park Ave at Sheppard Ave East,43.775084,-79.322721
1993,Littles Rd at Birrell Ave,43.817377,-79.204624
1995,Dixon Rd at Roxaline St,43.700443,-79.530724
1996,Ellesmere Rd at Morningside Ave,43.785523,-79.193129
1997,Warden Ave at Metropolitan Rd,43.767101,-79.302602
1998,Finch Ave East at Wilfred Ave,43.782881,-79.401773
2000,Dufferin St at Castlefield Ave,43.700622,-79.45155
2001,Steeles Ave East at Opposite Walkway to Dairis Cres,43.828963,-79.28354
2002,Pritchard Ave at Batavia Ave West Side,43.670196,-79.490042
2003,Culford Rd at Woolton Cres North,43.701453,-79.485361
2005,Parliament St at St James Ave,43.669711,-79.370053
2007,Neilson Rd at Walkway to Blackwater Cres & Kessack Crt,43.799907,-79.218183
2008,Pharmacy Ave at Pachino Blvd,43.763108,-79.311847
2009,Islington Ave at Golfdown Dr,43.721595,-79.55828
2010,Pharmacy Ave at Gordon Baker Rd South Side,43.811175,-79.334094
2011,Caledonia Rd at Bentworth Ave,43.719708,-79.468754
2013,Eglinton Ave East at Dunfield Ave,43.707504,-79.394948
2014,Hullmar Dr at Bloomington Cres (East),43.761282,-79.523517
2015,Orfus Rd at Dufflaw Rd,43.718709,-79.463528
2016,Sutherland Dr at Hanna Rd,43.701662,-79.36558
2017,Washburn Way at Griffen Dr,43.798171,-79.22806
2018,Ameer Ave at Sultana Ave,43.726863,-79.440154
2020,Steeles Ave West at Northwest Gate East Side,43.777721,-79.510466
2023,Willowdale Ave at Bishop Ave,43.783495,-79.408038
2024,Finch Ave West at Romfield Lane,43.762721,-79.493585
2025,Leslie St at Corning Rd,43.782011,-79.366258
2027,Eglinton Ave East at Rumsey Rd,43.712455,-79.369755
2028,Kipling Ave at Brookmere Rd,43.72804,-79.574378
2029,Coronation Dr at Chemical Crt,43.765644,-79.163145
2030,Longbourne Dr at Martin Grove Rd West Side,43.680803,-79.566618
2031,Dufferin St at Dane Ave,43.716083,-79.454991
2032,Avenue Rd at Davenport Rd,43.674804,-79.396742
2034,Steeles Ave East Loop at Bayview Ave,43.803431,-79.397336
2035,Cummer Ave at Pineway Blvd East Side,43.798759,-79.375492
2036,Coxwell Ave at Danforth Ave,43.683211,-79.32345
2037,Bathurst St at Lennox St,43.663726,-79.410537
2038,Dufferin St at Finch Ave West,43.768709,-79.466643
2039,Bathurst St at Robinson St,43.649099,-79.40483
2040,Lawrence Ave East at Blaine Dr East Side,43.734605,-79.358928
